Tick#,offsetTime,IMU_ATTI(0):Longitude,IMU_ATTI(0):Latitude,IMU_ATTI(0):numSats,IMU_ATTI(0):barometer:Raw,IMU_ATTI(0):barometer:Smooth,IMU_ATTI(0):accel:X,IMU_ATTI(0):accel:Y,IMU_ATTI(0):accel:Z,IMU_ATTI(0):accel:Composite,IMU_ATTI(0):gyro:X,IMU_ATTI(0):gyro:Y,IMU_ATTI(0):gyro:Z,IMU_ATTI(0):gyro:Composite,IMU_ATTI(0):mag:X,IMU_ATTI(0):mag:Y,IMU_ATTI(0):mag:Z,IMU_ATTI(0):mag:Mod,IMU_ATTI(0):velN,IMU_ATTI(0):velE,IMU_ATTI(0):velD,IMU_ATTI(0):velComposite,IMU_ATTI(0):velH,IMU_ATTI(0):GPS-H,IMU_ATTI(0):roll,IMU_ATTI(0):pitch,IMU_ATTI(0):yaw,IMU_ATTI(0):tiltInclination,IMU_ATTI(0):tiltDirection,IMU_ATTI(0):yaw360,IMU_ATTI(0):totalGyro:Z,IMU_ATTI(0):totalGyro:X,IMU_ATTI(0):totalGyro:Y,IMU_ATTI(0):magYaw,IMU_ATTI(0):distanceHP,IMU_ATTI(0):distanceTravelled,IMU_ATTI(0):directionOfTravel[mag],IMU_ATTI(0):directionOfTravel[true],IMU_ATTI(0):temperature,flightTime,navHealth,General:vpsHeight,General:relativeHeight,General:absoluteHeight,GPS(0):Long,GPS(0):Lat,GPS(0):Date,GPS(0):Time,GPS:dateTimeStamp,GPS(0):heightMSL,GPS(0):hDOP,GPS(0):pDOP,GPS(0):sAcc,GPS(0):numGPS,GPS(0):numGLNAS,GPS(0):numSV,GPS(0):velN,GPS(0):velE,GPS(0):velD,RC:Aileron,RC:Elevator,RC:Rudder,RC:Throttle,Controller:sig_level,Controller:mode_switch,flyCState,Controller:Aileron,Controller:Elevator,Controller:Rudder,Controller:Throttle,Controller:ctrlMode,Controller:navHealth,RC:failSafe,RC:dataLost,RC:appLost,RC:sigStrength,RC:connected,HP:Longitude,HP:Latitude,HP:rthHeight,Battery:status,SMART_BATT:goHome%,SMART_BATT:land%,SMART_BATT:goHomeTime,SMART_BATT:landTime,OA:avoidObst,OA:emergBrake,OA:radiusLimit,OA:airportLimit,OA:groundForceLanding,OA:horizNearBoundary,OA:vertLowLimit,OA:vertAirportLimit,OA:roofLimit,OA:hitGroundLimit,OA:frontDistance,MVO:velX,MVO:velY,MVO:velZ,MVO:posX,MVO:posY,MVO:posZ,MVO:hoverPointUncertainty1,MVO:hoverPointUncertainty2,MVO:hoverPointUncertainty3,MVO:hoverPointUncertainty4,MVO:hoverPointUncertainty5,MVO:hoverPointUncertainty6,MVO:velocityUncertainty1,MVO:velocityUncertainty2,MVO:velocityUncertainty3,MVO:velocityUncertainty4,MVO:velocityUncertainty5,MVO:velocityUncertainty6,MVO:height,MVO:heightUncertainty,Motor:Speed:RFront,Motor:Speed:LFront,Motor:Speed:LBack,Motor:Speed:RBack,Motor:EscTemp:RFront,Motor:EscTemp:LFront,Motor:EscTemp:LBack,Motor:EscTemp:RBack,Motor:PPMrecv:RFront,Motor:PPMrecv:LFront,Motor:PPMrecv:LBack,Motor:PPMrecv:RBack,Motor:PPMsend:RFront,Motor:PPMsend:LFront,Motor:PPMsend:LBack,Motor:PPMsend:RBack,Motor:V_out:RFront,Motor:V_out:LFront,Motor:V_out:LBack,Motor:V_out:RBack,Motor:Volts:RFront,Motor:Volts:LFront,Motor:Volts:LBack,Motor:Volts:RBack,Motor:Current:RFront,Motor:Current:LFront,Motor:Current:LBack,Motor:Current:RBack,Motor:Status:RFront,Motor:Status:LFront,Motor:Status:LBack,Motor:Status:RBack,AirComp:AirSpeedBody:X,AirComp:AirSpeedBody:Y,AirComp:Alti,AirComp:VelNorm,AirComp:VelTime:1,AirComp:VelTime:2,AirComp:VelLevel,flyCState,flycCommand,flightAction,nonGPSCause,compassError,connectedToRC,Battery:lowVoltage,RC:ModeSwitch,gpsUsed,visionUsed,notEnoughForce,IMUEX(0):err,IMUEX(0):rtk_Longitude,IMUEX(0):rtk_Latitude,IMUEX(0):rtk_Alti,MotorCtrl:PWM:RFront,MotorCtrl:PWM:LFront,MotorCtrl:PWM:LBack,MotorCtrl:PWM:RBack,AirCraftCondition:fsmState,AirCraftCondition:nearGround,AirCraftCondition:landState,AirCraftCondition:UP_acc_t,AirCraftCondition:UP_TF_t,RTKdata:Date,RTKdata:Time,RTKdata:Lon_P,RTKdata:Lat_P,RTKdata:Hmsl_P,RTKdata:Lon_S,RTKdata:Lat_S,RTKdata:Hmsl_S,RTKdata:Vel_N,RTKdata:Vel_E,RTKdata:Vel_D,RTKdata:YAW,RTKdata:SVN_S,RTKdata:SVN_P,RTKdata:hdop,RTKdata:pitch,RTKdata:posFlg_0,RTKdata:posFlg_1,RTKdata:posFlg_2,RTKdata:posFlg_3,RTKdata:posFlg_4,RTKdata:posFlg_5,RTKdata:GpsState,Attribute|Value,ConvertDatV3,3.7.1
62283591,-31.476,,,16,-162.34413,-162.79417,-0.013638768,-0.036681928,-0.98382425,0.98460233,-0.20537317,-0.55940914,0.5306851,0.79796207,436,-433,1383,1513,0.004967273,0.00208752,0.23926185,0.23932251,0.005388093,-0.005388093,2.061630007,-0.798401258,49.49698639,2.21057984,118.3343249,49.49698639,-2.270474987,1.447067275,-3.126926888,49.16891008,,0,,,29.09,0,2,,,,3.4889204,50.7865454,20200206,125225,2020-02-06T12:52:25Z,10.063,0.67,1.49,15.44,9,7,16,0.01,0,-0.03,0,0,0,0,2,0,GPS_Atti,0,0,0,0,GPS_Atti,0,Hover,,,66.66667,Connected,,,,OK,15,10,0,0,,,,,,,,,,,,,,,,,,,,,,,,,,,,,,0,,0,0,0,0,49,54,53,50,946,943,943,947,940,940,940,940,0,0.1,0,0,1528.8,1527.6,1527.6,1530,4.37,6.01,2.92,1.5,0,0,0,0,0,0,0,0,0,0,0,GPS_Atti,OTHER,NONE,ALREADY,False,Connected,,P,True,False,False,NONE,0,0,0,,,,,0,False,1,0,0,,,,,,,,,,,,,,,,,,,,,,,,Firmware Date| Dec 24 2018,,
66783622,-30.476,,,16,-162.88316,-162.77115,-0.014344143,-0.03625056,-0.9852283,0.98599935,0.56108856,-0.066448085,-0.6858947,0.8886435,429,-429,1386,1512,0.00744978,0.004520442,0.22937761,0.22954307,0.00871399,0.07949236,2.061206843,-0.794178527,49.53491576,2.208666023,118.4704129,49.53491576,-2.491342314,1.625371023,-3.503272612,49.41464853,,0,,,29.37,0,2,,,,3.4889219,50.7865458,20200206,125226,2020-02-06T12:52:26Z,10.151,0.67,1.49,14.1,9,7,16,0,0.01,-0.01,0,0,0,0,2,0,GPS_Atti,0,0,0,0,GPS_Atti,0,Hover,,,61.904762,Connected,,,,OK,15,10,0,0,,,,,,,,,,,,,,,,,,,,,,,,,,,,,,0,,0,0,0,0,50,54,54,49,946,943,942,946,940,940,940,940,0,0.1,0,0,1528.8,1527,1527,1528.8,4.37,6.01,2.92,1.5,0,0,0,0,0,0,0,0,0,0,0,GPS_Atti,OTHER,NONE,ALREADY,False,Connected,,P,True,False,False,NONE,0,0,0,,,,,0,False,1,0,0,,,,,,,,,,,,,,,,,,,,,,,,ACType|UNKNOWN,,
71283847,-29.476,3.488923006,50.78654594,16,-162.8303,-162.88406,-0.012463805,-0.03560243,-0.98394525,0.984668,0.67965305,-0.6016274,-0.15312286,0.9205055,445,-429,1386,1517,0.012226677,0.007088453,0.29249713,0.29283836,0.014132862,0.085260074,2.071079316,-0.783493004,49.57994945,2.214082689,118.8653075,49.57994945,-2.698225068,1.800282394,-3.870991669,48.3248666,,0,,,29.6,0,5,,0,,3.4889228,50.7865458,20200206,125227,2020-02-06T12:52:27Z,10.213,0.67,1.49,13.06,9,7,16,0,0.01,-0.03,0,0,0,0,5,0,GPS_Atti,0,0,0,0,GPS_Atti,5,Hover,,,66.66667,Connected,,,,OK,15,10,0,0,,,,,,,,,,,,,,,,,,,,,,,,,,,,,,0,,0,0,0,0,49,55,54,49,946,943,943,946,940,940,940,940,0,0.1,0,0,1530,1527,1527.6,1530,4.37,6.01,2.92,1.5,0,0,0,0,0,0,0,0,0,0,0,GPS_Atti,OTHER,NONE,ALREADY,False,Connected,,P,True,False,False,NONE,0,0,0,,,,,0,False,1,0,0,,,,,,,,,,,,,,,,,,,,,,,,dateTime|2020-2-6 12:52:12 GMT,,
75783922,-28.476,3.48892337,50.78654544,16,-162.5238,-162.84782,-0.014856825,-0.03576489,-0.98589814,0.98665845,0.4174999,0.0813526,-0.0820112,0.43318617,439,-433,1383,1514,-0.001712364,-1.09E-04,0.19971508,0.19972245,0.001715816,0.059150355,2.085170351,-0.766008272,49.60149678,2.221186309,119.4372658,49.60149678,-2.909290031,1.990349137,-4.229098747,48.94603087,0.067039642,0,,,30,0,5,,0,,3.4889233,50.7865455,20200206,125228,2020-02-06T12:52:28Z,10.241,0.67,1.49,12.36,9,7,16,0,0,-0.03,0,0,0,0,5,0,GPS_Atti,0,0,0,0,GPS_Atti,5,Hover,,,61.904762,Connected,3.488922885,50.78654596,45,OK,15,10,0,0,,,,,,,,,,,,,,,,,,,,,,,,,,,,,,0,,0,0,0,0,49,55,56,49,946,943,943,947,940,940,940,940,0,0.1,0,0,1529.4,1527.6,1526.4,1529.4,4.37,6.01,2.92,1.5,0,0,0,0,0,0,0,0,0,0,0,GPS_Atti,OTHER,NONE,ALREADY,False,Connected,,P,True,False,False,NONE,0,0,0,,,,,0,False,1,0,0,,,,,,,,,,,,,,,,,,,,,,,,BatterySN|843||,,
80284138,-27.476,3.488923782,50.78654525,16,-162.46567,-162.69861,-0.01297772,-0.03542186,-0.98405594,0.98477876,0.41617274,-0.25719377,0.09427625,0.4982333,439,-433,1386,1516,-3.98E-04,0.002070146,0.11554746,0.11556669,0.002108066,0.034147199,2.097729066,-0.771489813,49.61030088,2.234860346,119.4252738,49.61030088,-3.111268023,2.180566458,-4.586527956,48.98154517,0.101510309,0,,,30.34,0,5,,0,,3.4889239,50.7865452,20200206,125229,2020-02-06T12:52:29Z,10.279,0.67,1.49,11.66,9,7,16,0,0,-0.02,0,0,0,0,5,0,GPS_Atti,0,0,0,0,GPS_Atti,5,Hover,,,61.904762,Connected,3.488922885,50.78654596,45,OK,15,10,0,0,,,,,,,,,,,,,,,,,,,,,,,,,,,,,,0,,0,0,0,0,49,55,55,49,945,943,944,948,940,940,940,940,0,0.1,0,0,1530,1527,1527,1530,4.37,6.01,2.92,1.5,0,0,0,0,0,0,0,0,0,0,0,GPS_Atti,OTHER,NONE,ALREADY,False,Connected,,P,True,False,False,NONE,0,0,0,,,,,0,False,1,0,0,,,,,,,,,,,,,,,,,,,,,,,,geoDeclination|0.75 degrees,,
84784247,-26.476,3.488924282,50.78654508,16,-162.70877,-162.65425,-0.013300358,-0.035975646,-0.98383385,0.98458123,-0.2778412,-0.4740022,0.09088691,0.556897,436,-433,1386,1516,0.005868536,0.005336507,0.1031496,0.103454135,0.007932088,0.031936893,2.089416958,-0.785983365,49.61618815,2.232115249,119.0084037,49.61618815,-3.326047646,2.368647618,-4.956319701,49.19658982,0.139034133,0,,,30.5,0,5,,0,,3.4889244,50.7865452,20200206,125230,2020-02-06T12:52:30Z,10.299,0.67,1.49,11.09,9,7,16,-0.01,0.01,-0.02,0,0,0,0,5,0,GPS_Atti,0,0,0,0,GPS_Atti,5,Hover,,,57.14286,Connected,3.488922885,50.78654596,45,OK,15,10,0,0,,,,,,,,,,,,,,,,,,,,,,,,,,,,,,0,,0,0,0,0,50,54,55,49,946,943,942,946,940,940,940,940,0,0.1,0,0,1528.2,1527.6,1526.4,1528.8,4.37,6.01,2.92,1.5,0,0,0,0,0,0,0,0,0,0,0,GPS_Atti,OTHER,NONE,ALREADY,False,Connected,,P,True,False,False,NONE,0,0,0,,,,,0,False,1,0,0,,,,,,,,,,,,,,,,,,,,,,,,geoInclination|66.02 degrees,,
89284444,-25.476,3.488924888,50.78654537,16,-162.5238,-162.6259,-0.01219314,-0.034662277,-0.98564184,0.9863265,-0.084363334,0.94016945,-0.4706338,1.0547663,445,-433,1383,1515,-0.002240057,0.004072458,0.05448563,0.054683514,0.004647877,0.048695604,2.104670477,-0.765470026,49.6504626,2.239314352,119.6712872,49.6504626,-3.509659719,2.558428749,-5.317117701,48.57018465,0.155647886,0,,,30.79,0,5,,0,,3.488925,50.7865454,20200206,125231,2020-02-06T12:52:31Z,10.401,0.67,1.49,10.61,9,7,16,0.01,0,-0.01,0,0,0,0,5,0,GPS_Atti,0,0,0,0,GPS_Atti,5,Hover,,,61.904762,Connected,3.488922885,50.78654596,45,OK,15,10,0,0,,,,,,,,,,,,,,,,,,,,,,,,,,,,,,0,,0,0,0,0,49,55,55,49,946,944,943,947,940,940,940,940,0,0.1,0,0,1530,1527.6,1527.6,1529.4,4.37,6.01,2.92,1.5,0,0,0,0,0,0,0,0,0,0,0,GPS_Atti,OTHER,NONE,ALREADY,False,Connected,,P,True,False,False,NONE,0,0,0,,,,,0,False,1,0,0,,,,,,,,,,,,,,,,,,,,,,,,geoIntensity|48671.77 nanoTesla,,
93785244,-24.476,3.488925596,50.78654564,16,-162.93073,-162.75064,-0.012674591,-0.035277013,-0.98546046,0.98617315,0.0890503,-0.5067111,0.08328505,0.5211742,442,-433,1386,1517,-0.003084225,0.004674181,0.17589425,0.17598337,0.005600037,0.052952943,2.072385933,-0.753115866,49.66797781,2.204762641,119.703532,49.66797781,-3.698835386,2.730579203,-5.666627649,48.71480756,0.193868759,0,,,31.11,0,5,,0,,3.4889254,50.7865454,20200206,125232,2020-02-06T12:52:32Z,10.52,0.67,1.49,10.22,9,7,16,0,0.01,-0.02,0,0,0,0,5,0,GPS_Atti,0,0,0,0,GPS_Atti,5,Hover,,,61.904762,Connected,3.488922885,50.78654596,45,OK,15,10,0,0,,,,,,,,,,,,,,,,,,,,,,,,,,,,,,0,,0,0,0,0,49,55,55,49,946,943,943,946,940,940,940,940,0,0.1,0,0,1530,1527,1526.4,1528.8,4.37,6.01,2.92,1.5,0,0,0,0,0,0,0,0,0,0,0,GPS_Atti,OTHER,NONE,ALREADY,False,Connected,,P,True,False,False,NONE,0,0,0,,,,,0,False,1,0,0,0,0,3.488906233,50.78655371,55.604633,,,0,0,0,0,0,0,16,0,0,0,0,0,0,4,0,1,,,
98285274,-23.476,3.488925331,50.78654493,16,-162.64006,-162.83327,-0.013598516,-0.035410322,-0.9858629,0.98659235,0.2889972,0.04259202,-0.84857154,0.8974448,432,-433,1386,1514,-0.00263632,0.003870978,0.1805859,0.18064663,0.004683445,0.077254799,2.096875058,-0.758368847,49.6912349,2.229569913,119.8150025,49.6912349,-3.872969834,2.919340993,-6.030250952,49.43444293,0.207024354,0,,,31.41,0,5,0.1,0,,3.4889255,50.7865451,20200206,125233,2020-02-06T12:52:33Z,10.59,0.67,1.49,9.95,9,7,16,0,0,-0.02,0,0,0,0,5,0,GPS_Atti,0,0,0,0,GPS_Atti,5,Hover,,,52.380955,Connected,3.488922885,50.78654596,45,OK,15,10,0,0,,,,,,,,,,,,,,,,,,0.031999998,0,0,0.031999998,0,0.031999998,0.002,0,0.90986395,0.002,0,0.002,-1,0,0,0,0,0,49,54,54,49,946,943,942,947,940,940,940,940,0,0.1,0,0,1529.4,1527,1526.4,1528.2,4.37,6.01,2.92,1.5,0,0,0,0,0,0,0,0,0,0,0,GPS_Atti,OTHER,NONE,ALREADY,False,Connected,,P,True,False,False,NONE,0,0,0,,,,,0,True,1,0,0,0,0,3.48890688,50.786534,57.884377,3.4889071,50.786538,57.763,-0.009504261,-0.001964747,7.32E-04,0,23,23,0.5962075,0,16,16,0,0,4,0,6,,,
102785284,-22.476,3.488925652,50.78654446,16,-162.68234,-162.69592,-0.013107432,-0.034727488,-0.98616123,0.98685956,0.31093326,-0.31088233,0.58802474,0.7342346,439,-433,1386,1516,0.005001199,0.010758959,0.05708546,0.058305375,0.011864535,0.044984004,2.098219409,-0.77212198,49.71519587,2.23553837,119.5193067,49.71519587,-4.043677633,3.112151112,-6.381654161,48.98325264,0.256681048,0,,,31.7,0,5,0.1,0,,3.4889257,50.7865446,20200206,125234,2020-02-06T12:52:34Z,10.619,0.67,1.49,9.69,9,7,16,0,0.01,-0.02,0,0,0,0,5,0,GPS_Atti,0,0,0,0,GPS_Atti,5,Hover,,,66.66667,Connected,3.488922885,50.78654596,45,OK,15,10,0,0,,,,,,,,,,,3,-0.03,0.03,,-5.22E-04,3.00E-04,,0.032566827,0,0,0.03256682,0,0.03256682,0.002035427,0,0.909851,0.002035426,0,0.002035426,,1000000,0,0,0,0,50,55,55,50,946,943,942,946,940,940,940,940,0,0.1,0,0,1528.8,1527,1527,1528.2,4.37,6.01,2.92,1.5,0,0,0,0,0,0,0,0,0,0,0,GPS_Atti,OTHER,NONE,ALREADY,False,Connected,,P,True,False,False,NONE,0,0,0,,,,,0,True,1,0,0,0,0,3.488910173,50.78653451,58.23209,3.488908,50.7865364,57.892,-8.48E-04,-0.003326839,3.89E-04,0,23,23,0.5962075,0,16,16,0,0,4,0,10,,,
107286186,-21.475,3.488926117,50.78654446,16,-162.50267,-162.71027,-0.012843826,-0.035572123,-0.9858651,0.98659027,-0.25719264,-0.28854486,-0.32594806,0.5056168,442,-433,1383,1515,-0.004843123,0.008740638,0.042754438,0.04390668,0.009992727,0.022701509,2.114929051,-0.758733669,49.71560728,2.246676793,119.987298,49.71560728,-4.214598788,3.316133761,-6.733498005,48.77410902,0.282059446,0,,,31.95,0,5,0.1,0,,3.4889262,50.7865445,20200206,125235,2020-02-06T12:52:35Z,10.664,0.67,1.49,9.45,9,7,16,0,0,-0.02,0,0,0,0,5,0,GPS_Atti,0,0,0,0,GPS_Atti,5,Hover,,,61.904762,Connected,3.488922885,50.78654596,45,OK,15,10,0,0,,,,,,,,,,,3,-0.01,0.01,0.24,-5.22E-04,2.99E-04,4.80E-05,0.001706364,0,0,0.00170636,0,0.001706361,1.07E-04,0,0.909918,1.07E-04,0,1.07E-04,,1000000,0,0,0,0,49,55,54,49,946,943,943,946,940,940,940,940,0,0.1,0,0,1529.4,1526.4,1527,1528.2,4.37,6.01,2.92,1.5,0,0,0,0,0,0,0,0,0,0,0,GPS_Atti,OTHER,NONE,ALREADY,False,Connected,,P,True,False,False,NONE,0,0,0,,,,,0,True,1,0,0,0,0,3.488914941,50.7865337,59.01415,3.4889116,50.7865371,58.172,-0.003617711,-3.03E-04,-0.004268027,0,24,23,0.57790124,0,16,16,0,0,4,0,15,,,
111786256,-20.475,3.488926686,50.78654408,16,-162.52908,-162.6934,-0.01341486,-0.035852972,-0.9859833,0.9867261,0.80541974,-0.058756214,-0.17617206,0.826553,439,-433,1386,1516,-0.005866694,0.004710426,0.044356085,0.04498965,0.007523709,0.050881527,2.14025223,-0.750985943,49.7098657,2.267953046,120.3818768,49.7098657,-4.389156432,3.543507817,-7.078913403,49.00761609,0.339654563,0,,,32.35,0,5,0.1,0,,3.4889267,50.7865443,20200206,125236,2020-02-06T12:52:36Z,10.703,0.66,1.49,9.24,9,7,16,-0.01,0,-0.02,0,0,0,0,5,0,GPS_Atti,0,0,0,0,GPS_Atti,5,Hover,,,61.904762,Connected,3.488922885,50.78654596,45,OK,15,10,0,0,,,,,,,,,,,3,-0.01,0.01,0.2,-5.23E-04,3.00E-04,4.32E-05,0.00169893,0,0,0.001698929,0,0.00169893,1.06E-04,0,0.9099309,1.06E-04,0,1.06E-04,,1000000,0,0,0,0,49,55,54,49,946,943,943,946,940,940,940,940,0,0.1,0,0,1529.4,1526.4,1526.4,1528.8,4.37,6.01,2.92,1.5,0,0,0,0,0,0,0,0,0,0,0,GPS_Atti,OTHER,NONE,ALREADY,False,Connected,,P,True,False,False,NONE,0,0,0,,,,,0,True,1,0,0,0,0,3.48892269,50.78654058,59.68756,3.4889165,50.786539,58.444,3.57E-04,0.00431915,-0.010950191,0,24,24,0.56693894,0,16,16,0,0,4,0,20,,,
116286319,-19.475,3.488926966,50.78654408,16,-163.0417,-162.70847,-0.01356657,-0.036239546,-0.98602027,0.9867793,0.25356615,-1.0287527,0.4733961,1.1604877,439,-433,1386,1516,-0.005899098,0.009929279,0.04541924,0.046864666,0.011549456,0.008143197,2.133784261,-0.741531602,49.70833411,2.258735998,120.5522216,49.70833411,-4.563222183,3.758053595,-7.429526492,48.98333473,0.355430725,0,,,32.58,0,5,0.1,0,,3.488927,50.7865442,20200206,125237,2020-02-06T12:52:37Z,10.728,0.66,1.49,9.08,9,7,16,0,0,-0.02,0,0,0,0,5,0,GPS_Atti,0,0,0,0,GPS_Atti,5,Hover,,,61.904762,Connected,3.488922885,50.78654596,45,OK,15,10,0,0,,,,,,,,,,,3,0,0.02,0.18,-5.22E-04,3.00E-04,4.08E-05,0.001629858,0,0,0.001629858,0,0.001629857,1.02E-04,0,0.909891,1.02E-04,0,1.02E-04,,1000000,0,0,0,0,50,54,54,50,946,943,943,946,940,940,940,940,0,0.1,0,0,1528.8,1525.8,1525.2,1528.8,4.37,6.01,2.92,1.5,0,0,0,0,0,0,0,0,0,0,0,GPS_Atti,OTHER,NONE,ALREADY,False,Connected,,P,True,False,False,NONE,0,0,0,,,,,0,True,1,0,0,0,0,3.488926978,50.78653651,60.2956,3.48892,50.7865383,59.087,0.00257676,0.001793024,-0.003453952,0,24,24,0.56693894,0,16,16,0,0,4,0,25,,,
120786341,-18.475,3.488927183,50.78654394,16,-162.90958,-162.71681,-0.013390583,-0.03515873,-0.98457086,0.9852894,-0.017269412,0.1072987,-0.38931194,0.40419677,442,-433,1383,1515,-0.005152195,0.009077627,0.04225593,0.043525994,0.010437836,0.010833855,2.126274603,-0.755040069,49.71754559,2.256121264,120.1748459,49.71754559,-4.721652363,3.960306638,-7.799591787,48.78397568,0.376511507,0,,,32.84,0,5,0.1,0,,3.4889272,50.7865441,20200206,125238,2020-02-06T12:52:38Z,10.745,0.66,1.49,8.95,9,7,16,0,0,-0.02,0,0,0,0,5,0,GPS_Atti,0,0,0,0,GPS_Atti,5,Hover,,,66.66667,Connected,3.488922885,50.78654596,45,OK,15,10,0,0,,,,,,,,,,,3,0,0,0.15,-5.23E-04,2.97E-04,3.84E-05,0.00162598,0,0,0.001625981,0,0.001625979,1.02E-04,0,0.9098589,1.02E-04,0,1.02E-04,,1000000,0,0,0,0,50,56,56,50,946,943,943,947,940,940,940,940,0,0.1,0,0,1528.2,1525.8,1527.6,1528.8,4.37,6.01,2.92,1.5,0,0,0,0,0,0,0,0,0,0,0,GPS_Atti,OTHER,NONE,ALREADY,False,Connected,,P,True,False,False,NONE,0,0,0,,,,,0,True,1,0,0,0,0,3.488928351,50.78653729,60.4778,3.4889231,50.7865377,59.623,-0.003987061,9.96E-04,0.003768614,0,24,24,0.56693894,0,16,16,0,0,4,0,30,,,
125287219,-17.475,3.488927484,50.78654385,16,-162.43925,-162.67966,-0.013132293,-0.03677248,-0.9855899,0.9863631,-0.23048447,-0.2635462,-0.5387455,0.6425157,436,-433,1386,1516,-0.001846327,-0.001195525,0.026488151,0.026579322,0.002199591,0.021309602,2.110514352,-0.761913144,49.73652438,2.243598232,119.8937219,49.73652438,-4.864129824,4.159472422,-8.173635882,49.18676462,0.399638203,0,,,33.2,0,5,0.1,0,,3.4889275,50.7865441,20200206,125239,2020-02-06T12:52:39Z,10.819,0.66,1.49,8.79,9,7,16,0,0,-0.01,0,0,0,0,5,0,GPS_Atti,0,0,0,0,GPS_Atti,5,Hover,,,66.66667,Connected,3.488922885,50.78654596,45,OK,15,10,0,0,,,,,,,,,,,3,0,0,0.12,-5.22E-04,2.96E-04,3.49E-05,0.001623073,0,0,0.001623073,0,0.001623074,1.01E-04,0,0.9098104,1.01E-04,0,1.01E-04,,1000000,0,0,0,0,49,55,55,49,946,943,943,947,940,940,940,940,0,0.1,0,0,1528.8,1525.8,1525.8,1528.8,4.37,6.01,2.92,1.5,0,0,0,0,0,0,0,0,0,0,0,GPS_Atti,OTHER,NONE,ALREADY,False,Connected,,P,True,False,False,NONE,0,0,0,,,,,0,True,1,0,0,0,0,3.488927847,50.78653629,60.28474,3.488925,50.7865374,59.892,-0.002598147,-0.00286653,-0.00296561,0,24,24,0.56693894,0,16,16,0,0,4,0,34,,,
129787473,-16.475,3.488927958,50.78654403,16,-162.69292,-162.6777,-0.012681,-0.03507639,-0.98456305,0.9852693,0.4798718,-0.2008013,-0.5347613,0.7460347,442,-433,1386,1517,-7.11E-04,0.006064432,0.030691478,0.03129297,0.006105995,0.032703086,2.124554448,-0.775371258,49.74437329,2.261378087,119.7017919,49.74437329,-5.007855095,4.365192913,-8.542442333,48.8234487,0.416424392,0,,,33.46,0,5,0.1,0,,3.4889281,50.7865442,20200206,125240,2020-02-06T12:52:40Z,10.968,0.66,1.49,8.62,9,7,16,0,0,-0.02,0,0,0,0,5,0,GPS_Atti,0,0,0,0,GPS_Atti,5,Hover,,,61.904762,Connected,3.488922885,50.78654596,45,OK,15,10,0,0,,,,,,,,,,,3,0,0.01,0.12,-5.21E-04,2.98E-04,3.40E-05,0.001620968,0,0,0.001620969,0,0.001620969,1.01E-04,0,0.90981823,1.01E-04,0,1.01E-04,,1000000,0,0,0,0,50,55,56,50,946,943,942,947,940,940,940,940,0,0.1,0,0,1527.6,1525.8,1525.2,1528.2,4.37,6.01,2.92,1.5,0,0,0,0,0,0,0,0,0,0,0,GPS_Atti,OTHER,NONE,ALREADY,False,Connected,,P,True,False,False,NONE,0,0,0,,,,,0,True,1,0,0,0,0,3.488927431,50.78653581,60.021267,3.4889261,50.7865367,59.991,-0.003503271,0.002499639,-0.001460984,0,24,24,0.56693894,0,16,16,0,0,4,0,39,,,
134287830,-15.475,3.488928813,50.78654436,16,-162.66649,-162.67021,-0.012626177,-0.035965186,-0.984755,0.9854924,0.58036673,-0.54719967,-0.14220007,0.81023073,432,-433,1383,1512,-5.21E-04,0.001021739,0.016991798,0.017030468,0.001147014,0.069113471,2.125235277,-0.758193035,49.74465819,2.256197665,120.1176913,49.74465819,-5.156984825,4.579528,-8.902405857,49.46436821,0.453407281,0,,,33.7,0,5,0.1,0,,3.4889288,50.7865444,20200206,125241,2020-02-06T12:52:41Z,11.135,0.66,1.49,8.47,9,7,16,0,0,-0.02,0,0,0,0,5,0,GPS_Atti,0,0,0,0,GPS_Atti,5,Hover,,,66.66667,Connected,3.488922885,50.78654596,45,OK,15,10,0,0,,,,,,,,,,,3,0,0,0.09,-5.22E-04,2.97E-04,3.20E-05,0.001619053,0,0,0.001619053,0,0.001619053,1.01E-04,0,0.9098113,1.01E-04,0,1.01E-04,,1000000,0,0,0,0,50,54,55,50,946,943,942,947,940,940,940,940,0,0.1,0,0,1529.4,1526.4,1525.8,1528.8,4.37,6.01,2.92,1.5,0,0,0,0,0,0,0,0,0,0,0,GPS_Atti,OTHER,NONE,ALREADY,False,Connected,,P,True,False,False,NONE,0,0,0,,,,,0,True,1,0,0,0,0,3.488926729,50.78653617,59.925884,3.4889265,50.7865364,59.983,-0.006619084,8.57E-04,0.002129644,0,24,24,0.56693894,0,16,16,0,0,4,0,44,,,
138789969,-14.475,3.488929556,50.78654447,16,-162.40755,-162.66713,-0.012986903,-0.036574464,-0.9846828,0.98544735,0.5383444,-0.34398428,0.4566388,0.7852763,432,-433,1383,1512,0.001218733,0.00881354,0.025420036,0.026932176,0.008897405,0.044883393,2.127982342,-0.769494491,49.74842019,2.262596387,119.8753717,49.74842019,-5.2995471,4.787826652,-9.268951995,49.48668061,0.497370589,0,,,33.98,0,5,0.1,0,,3.4889295,50.7865446,20200206,125242,2020-02-06T12:52:42Z,11.288,0.66,1.49,8.32,9,7,16,0.01,0,-0.02,0,0,0,0,5,0,GPS_Atti,0,0,0,0,GPS_Atti,5,Hover,,,52.380955,Connected,3.488922885,50.78654596,45,OK,15,10,0,0,,,,,,,,,,,3,0,0,0.08,-5.22E-04,2.97E-04,3.12E-05,0.001619316,0,0,0.001619315,0,0.001619315,1.01E-04,0,0.9098277,1.01E-04,0,1.01E-04,,1000000,0,0,0,0,50,55,54,49,946,943,942,946,940,940,940,940,0,0.1,0,0,1528.2,1526.4,1524.5,1528.2,4.37,6.01,2.92,1.5,0,0,0,0,0,0,0,0,0,0,0,GPS_Atti,OTHER,NONE,ALREADY,False,Connected,,P,True,False,False,NONE,3.488925733,50.78654022,18.959356,,,,,0,True,1,0,0,0,0,3.488917251,50.78653903,55.93448,3.4889266,50.7865363,59.928,0.002587887,0.003620228,-0.007025568,0,24,26,0.56693894,0,16,50,0,24,4,0,49,,,
143290644,-13.474,3.488930062,50.78654481,16,-162.95714,-162.68884,-0.012069978,-0.035590958,-0.9856069,0.9863232,0.44821015,-0.002847442,-0.16609816,0.4780053,432,-429,1386,1513,-0.005448523,0.005995937,0.028534584,0.029662436,0.008101707,0.043637421,2.161343456,-0.75490396,49.76675708,2.28914943,120.521138,49.76675708,-5.418267654,5.006923168,-9.62376189,49.28412248,0.520514056,0,,,34.27,0,5,0.1,0,,3.48893,50.7865448,20200206,125243,2020-02-06T12:52:43Z,11.39,0.66,1.49,8.21,9,7,16,-0.01,0.01,-0.01,0,0,0,0,5,0,GPS_Atti,0,0,0,0,GPS_Atti,5,Hover,,,85.71429,Connected,3.488922885,50.78654596,45,OK,15,10,0,0,,,,,,,,,,,3,0,0.01,0.09,-5.21E-04,2.97E-04,3.26E-05,0.001630249,0,0,0.001630249,0,0.00163025,1.02E-04,0,0.9097479,1.02E-04,0,1.02E-04,,1000000,0,0,0,0,50,55,54,49,946,943,942,946,940,940,940,940,0,0.1,0,0,1528.2,1525.2,1525.8,1528.2,4.37,6.01,2.92,1.5,0,0,0,0,0,0,0,0,0,0,0,GPS_Atti,OTHER,NONE,ALREADY,False,Connected,,P,True,False,False,NONE,3.488917482,50.7865388,-58.40667,,,,,0,True,1,0,0,0,0,3.488917223,50.78653901,55.93299,3.4889267,50.7865363,59.805,-0.005592927,-0.001402925,-0.003704135,0,24,26,0.56693894,0,16,50,0,24,4,0,54,,,
147791245,-12.474,3.488930512,50.78654534,16,-163.45918,-162.6849,-0.012693189,-0.035641268,-0.984751,0.9854775,-0.30665934,-0.92394614,-0.38528976,1.0469788,442,-433,1383,1515,-0.003358834,0.007703951,0.017748035,0.019637346,0.008404322,0.058246209,2.144342586,-0.751761341,49.76987833,2.272068569,120.4576138,49.76987833,-5.548525641,5.222460904,-9.980140695,48.80384428,0.540647362,0,,,34.56,0,5,0.1,0,,3.4889304,50.7865452,20200206,125244,2020-02-06T12:52:44Z,11.496,0.66,1.49,8.08,9,7,16,0.01,0,-0.01,0,0,0,0,5,0,GPS_Atti,0,0,0,0,GPS_Atti,5,Hover,,,95.2381,Connected,3.488922885,50.78654596,45,OK,15,10,0,0,,,,,,,,,,,3,0,0.01,0.08,-5.21E-04,2.99E-04,3.19E-05,0.001615324,0,0,0.001615323,0,0.001615325,1.01E-04,0,0.9097674,1.01E-04,0,1.01E-04,,1000000,0,0,0,0,50,55,54,49,946,943,943,947,940,940,940,940,0,0.1,0,0,1528.2,1525.8,1524.5,1527.6,4.37,6.01,2.92,1.5,0,0,0,0,0,0,0,0,0,0,0,GPS_Atti,OTHER,NONE,ALREADY,False,Connected,,P,True,False,False,NONE,3.488917179,50.78653897,-55.94419,,,,,0,True,1,0,0,0,0,3.488917204,50.78653902,55.932247,3.4889267,50.7865363,59.663,4.29E-04,-0.001066303,0.003409643,0,24,26,0.56693894,0,16,50,0,22,4,0,58,,,
152291341,-11.474,3.488930936,50.78654573,16,-162.8356,-162.68015,-0.013038611,-0.036365073,-0.9862609,0.9870172,0.65047544,-0.62594754,-0.09432003,0.907648,436,-433,1383,1513,-0.0053555,0.00925882,0.012491602,0.016445281,0.010696126,0.041853296,2.1573723,-0.761218414,49.78762243,2.287490806,120.3599189,49.78762243,-5.667402881,5.448803171,-10.35706211,49.24148192,0.088625943,0,,,34.9,0,5,0.1,0,,3.4889308,50.7865456,20200206,125245,2020-02-06T12:52:45Z,11.598,0.66,1.49,7.97,9,7,16,0.01,0,-0.01,0,0,0,0,5,0,GPS_Atti,0,0,0,0,GPS_Atti,5,Hover,,,95.2381,Connected,3.488930433,50.786545,45,OK,15,10,0,0,,,,,,,,,,,3,-0.01,0.01,0.07,-5.25E-04,2.95E-04,3.02E-05,0.001614179,0,0,0.00161418,0,0.001614181,1.01E-04,0,0.9096167,1.01E-04,0,1.01E-04,,1000000,0,0,0,0,49,54,55,50,946,943,943,947,940,940,940,940,0,0.1,0,0,1528.8,1525.2,1525.8,1527.6,4.37,6.01,2.92,1.5,0,0,0,0,0,0,0,0,0,0,0,GPS_Atti,OTHER,NONE,ALREADY,False,Connected,,P,True,False,False,NONE,3.488917208,50.78653899,-55.917953,,,,,0,True,1,0,0,0,0,3.488917218,50.78653905,55.935825,3.4889266,50.7865364,59.471,-0.003674456,-0.001324782,-0.014149761,0,24,26,0.56693894,0,16,50,0,22,4,0,63,,,
156791461,-10.474,3.48893132,50.78654588,16,-162.71405,-162.67755,-0.012764005,-0.035263274,-0.98498243,0.98569614,0.076446265,-0.19468027,-0.7513275,0.77989584,439,-433,1386,1516,-0.010390705,0.013049735,0.012134651,0.020627944,0.016681196,0.015217472,2.167357148,-0.752782215,49.80390625,2.294131151,120.6578483,49.80390625,-5.784433469,5.677431086,-10.72681118,49.04820318,0.116340152,0,,,35.18,0,5,0.1,0,,3.4889312,50.7865459,20200206,125246,2020-02-06T12:52:46Z,11.694,0.66,1.49,7.86,9,7,16,0,0,0,0,0,0,0,5,0,GPS_Atti,0,0,0,0,GPS_Atti,5,Hover,,,95.2381,Connected,3.488930433,50.786545,45,OK,15,10,0,0,,,,,,,,,,,3,-0.01,0.02,0.07,-5.25E-04,2.96E-04,2.93E-05,0.001613509,0,0,0.001613509,0,0.001613512,1.01E-04,0,0.90955514,1.01E-04,0,1.01E-04,,1000000,0,0,0,0,51,55,55,51,946,943,942,947,940,940,940,940,0,0.1,0,0,1527.6,1526.4,1524.5,1528.2,4.37,6.01,2.92,1.5,0,0,0,0,0,0,0,0,0,0,0,GPS_Atti,OTHER,NONE,ALREADY,False,Connected,,P,True,False,False,NONE,3.488917203,50.786539,-55.930466,,,,,0,True,1,0,0,0,0,3.4889172,50.78653903,55.936443,3.4889266,50.7865366,59.305,-0.006860791,0.001234184,0.007623892,0,24,26,0.56693894,0,16,50,0,22,4,0,68,,,
161292140,-9.474,3.488931437,50.78654613,16,-162.98885,-162.6796,-0.012730264,-0.035041094,-0.9859045,0.98660916,0.40229592,-0.053263415,-0.48074216,0.62912005,436,-433,1380,1510,-0.006115623,0.011951264,0.008078189,0.015668143,0.013425109,0.015181948,2.169388361,-0.746033136,49.83389081,2.293850097,120.863684,49.83389081,-5.890037949,5.908388019,-11.09129544,49.22421128,0.144088225,0,,,35.47,0,5,0.1,0,,3.4889314,50.7865461,20200206,125247,2020-02-06T12:52:47Z,11.751,0.66,1.49,7.8,9,7,16,0.01,0,0,0,0,0,0,5,0,GPS_Atti,0,0,0,0,GPS_Atti,5,Hover,,,90.47619,Connected,3.488930433,50.786545,45,OK,15,10,0,0,,,,,,,,,,,3,0,0.01,0.05,-5.24E-04,2.94E-04,2.89E-05,0.001612719,0,0,0.00161272,0,0.001612722,1.01E-04,0,0.90945756,1.01E-04,0,1.01E-04,,1000000,0,0,0,0,50,56,55,49,946,943,943,947,940,940,940,940,0,0.1,0,0,1528.8,1525.2,1525.2,1528.2,4.37,6.01,2.92,1.5,0,0,0,0,0,0,0,0,0,0,0,GPS_Atti,OTHER,NONE,ALREADY,False,Connected,,P,True,False,False,NONE,3.48891731,50.78653897,-55.925495,,,,,0,True,1,0,0,0,0,3.488917227,50.78653906,55.930904,3.4889266,50.7865366,59.124,-0.004573985,-8.67E-05,0.012413247,0,24,26,0.56693894,0,16,50,0,22,4,0,73,,,
165792475,-8.474,3.488931616,50.78654624,16,-162.51323,-162.67856,-0.012265646,-0.036044743,-0.98543745,0.98617274,-0.5329082,-0.6540743,0.42577177,0.94503224,436,-433,1383,1513,-0.011752917,0.013770241,0.011167305,0.02127109,0.018103883,-2.62E-04,2.165060645,-0.762967833,49.85909609,2.29532135,120.4541161,49.85909609,-5.994361364,6.147259591,-11.46972518,49.25497204,0.161367741,0,,,35.72,0,5,0.1,0,,3.4889316,50.7865462,20200206,125247,2020-02-06T12:52:47Z,11.774,0.66,1.49,7.76,9,7,16,0,0,0,0,0,0,0,5,0,GPS_Atti,0,0,0,0,GPS_Atti,5,Hover,,,90.47619,Connected,3.488930433,50.786545,45,OK,15,10,0,0,,,,,,,,,,,3,-0.01,0,0.05,-5.26E-04,2.93E-04,2.83E-05,0.001611395,0,0,0.001611396,0,0.001611398,1.01E-04,0,0.9094051,1.01E-04,0,1.01E-04,,1000000,0,0,0,0,50,55,55,48,946,943,942,946,940,940,940,940,0,0.1,0,0,1528.2,1526.4,1525.2,1527,4.37,6.01,2.92,1.5,0,0,0,0,0,0,0,0,0,0,0,GPS_Atti,OTHER,NONE,ALREADY,False,Connected,,P,True,False,False,NONE,3.488917265,50.78653897,-55.924,,,,,0,True,1,0,0,0,0,3.488917228,50.78653905,55.931683,3.4889264,50.7865366,58.971,0.002382033,0.001601202,-0.002817932,0,24,26,0.56693894,0,16,50,0,22,4,0,78,,,
170293037,-7.474,3.488931837,50.78654653,16,-162.55023,-162.67569,-0.011869729,-0.034509312,-0.98681486,0.98748946,0.20334888,-0.27667913,-0.93580574,0.99681216,436,-433,1383,1513,-0.003935309,0.013900624,0.00552282,0.015466594,0.014446937,0.021441182,2.160002657,-0.772097689,49.8790906,2.293603614,120.2170549,49.8790906,-6.09462949,6.375368072,-11.85406337,49.26278995,0.197131741,0,,,36.01,0,5,0.1,0,,3.4889319,50.7865465,20200206,125248,2020-02-06T12:52:48Z,11.809,0.66,1.49,7.72,9,7,16,0,0,-0.01,0,0,0,0,5,0,GPS_Atti,0,0,0,0,GPS_Atti,5,Hover,,,95.2381,Connected,3.488930433,50.786545,45,OK,15,10,0,0,,,,,,,,,,,3,0,0.01,0.04,-5.26E-04,2.90E-04,2.52E-05,0.001611505,0,0,0.001611506,0,0.001611507,1.01E-04,0,0.9093246,1.01E-04,0,1.01E-04,,1000000,0,0,0,0,51,56,55,50,946,943,942,947,940,940,940,940,0,0.1,0,0,1527.6,1525.8,1524.5,1528.2,4.37,6.01,2.92,1.5,0,0,0,0,0,0,0,0,0,0,0,GPS_Atti,OTHER,NONE,ALREADY,False,Connected,,P,True,False,False,NONE,3.488917282,50.786539,-55.92954,,,,,0,True,1,0,0,0,0,3.48891725,50.78653906,55.93044,3.4889262,50.7865366,58.867,-0.001570033,0.008161678,0.002038605,0,24,26,0.56693894,0,16,50,0,20,4,0,82,,,
174793424,-6.474,3.488932214,50.78654672,16,-162.60307,-162.67264,-0.012097652,-0.034567114,-0.987554,0.98823285,-0.44153556,-0.5899349,0.25374204,0.77933425,439,-433,1386,1516,-0.00586699,0.00885368,2.13E-04,0.010623312,0.010621168,0.023122564,2.138110239,-0.758308247,49.88885181,2.26836503,120.3684734,49.88885181,-6.200490151,6.598582521,-12.22614301,49.01647372,0.228806158,0,,,36.29,0,5,0.1,0,,3.4889321,50.7865467,20200206,125249,2020-02-06T12:52:49Z,11.822,0.66,1.49,7.69,9,7,16,0.01,0,0,0,0,0,0,5,0,GPS_Atti,0,0,0,0,GPS_Atti,5,Hover,,,95.2381,Connected,3.488930433,50.786545,45,OK,15,10,0,0,,,,,,,,,,,3,0,0.01,0.04,-5.24E-04,2.92E-04,2.67E-05,0.001611069,0,0,0.001611071,0,0.00161107,1.01E-04,0,0.9093145,1.01E-04,0,1.01E-04,,1000000,0,0,0,0,50,55,54,49,946,943,942,946,940,940,940,940,0,0.1,0,0,1528.2,1524.5,1525.2,1527.6,4.37,6.01,2.92,1.5,0,0,0,0,0,0,0,0,0,0,0,GPS_Atti,OTHER,NONE,ALREADY,False,Connected,,P,True,False,False,NONE,3.488917334,50.78653899,-55.934097,,,,,0,True,1,0,0,0,0,3.488917269,50.78653907,55.93322,3.4889272,50.7865379,58.672,-7.91E-04,-0.001985688,0.006702907,0,25,26,0.5482611,0,16,50,0,20,4,0,87,,,
179293811,-5.474,3.488932294,50.78654702,16,-162.9043,-162.67493,-0.01166654,-0.035952877,-0.9864374,0.9871613,-0.011708331,0.04081849,0.53872776,0.5403988,436,-433,1386,1516,-0.001572944,0.01139269,-0.002705027,0.011814597,0.011500762,0.022111442,2.144422307,-0.762823896,49.9103027,2.275821021,120.3359561,49.9103027,-6.291151927,6.832413091,-12.59879396,49.23540961,0.259957534,0,,,36.58,0,5,0.1,0,,3.4889322,50.7865469,20200206,125250,2020-02-06T12:52:50Z,11.855,0.66,1.49,7.65,9,7,16,0,0,0,0,0,0,0,5,0,GPS_Atti,0,0,0,0,GPS_Atti,5,Hover,,,95.2381,Connected,3.488930433,50.786545,45,OK,15,10,0,0,,,,,,,,,,,3,0,0,0.03,-5.25E-04,2.89E-04,2.45E-05,0.001610651,0,0,0.001610651,0,0.00161065,1.01E-04,0,0.90922797,1.01E-04,0,1.01E-04,,1000000,0,0,0,0,50,55,56,50,946,943,943,947,940,940,940,940,0,0.1,0,0,1528.2,1525.2,1526.4,1527.6,4.37,6.01,2.92,1.5,0,0,0,0,0,0,0,0,0,0,0,GPS_Atti,OTHER,NONE,ALREADY,False,Connected,,P,True,False,False,NONE,3.488917269,50.786539,-55.925484,,,,,0,True,1,0,0,0,0,3.488917219,50.78653906,55.926556,3.4889268,50.7865377,58.489,-0.001296553,-5.15E-04,0.010569608,0,25,26,0.54826325,0,16,50,0,20,4,0,92,,,
183794099,-4.474,3.488932225,50.78654709,16,-162.65063,-162.67552,-0.012284218,-0.0353771,-0.9856675,0.98637867,0.028345538,-0.36765218,0.6032384,0.70701355,439,-433,1386,1516,-0.003203776,0.010714879,-0.001084246,0.011236032,0.011183596,-0.001844039,2.141856097,-0.75521187,49.96531339,2.270865608,120.5501508,49.96531339,-6.346506838,7.067097677,-12.9682986,49.01667917,0.264510905,0,,,36.92,0,5,0.1,0,,3.4889322,50.786547,20200206,125251,2020-02-06T12:52:51Z,11.898,0.66,1.49,7.61,9,7,16,0,0,0,0,0,0,0,5,0,GPS_Atti,0,0,0,0,GPS_Atti,5,Hover,,,95.2381,Connected,3.488930433,50.786545,45,OK,15,10,0,0,,,,,,,,,,,3,0,0,0.02,-5.27E-04,2.84E-04,2.33E-05,0.001610144,0,0,0.001610144,0,0.001610142,1.01E-04,0,0.9090556,1.01E-04,0,1.01E-04,,1000000,0,0,0,0,48,56,55,48,947,943,943,947,940,940,940,940,0,0.1,0,0,1528.2,1525.2,1524.5,1527,4.37,6.01,2.92,1.5,0,0,0,0,0,0,0,0,0,0,0,GPS_Atti,OTHER,NONE,ALREADY,False,Connected,,P,True,False,False,NONE,3.488917286,50.78653897,-55.92281,,,,,0,True,1,0,0,0,0,3.48891723,50.78653902,55.923626,3.4889259,50.7865369,58.349,7.30E-04,-0.004801467,0.004897154,0,25,26,0.5482654,0,16,50,0,20,4,0,97,,,
188294636,-3.474,3.48893238,50.78654696,16,-162.56079,-162.67339,-0.012014609,-0.03615153,-0.98605555,0.9867912,0.54958826,0.32236636,-0.7884684,1.0137306,436,-433,1386,1516,-0.007928258,0.010378428,-0.007444315,0.01503286,0.013060208,0.004997636,2.140172865,-0.74693465,50.00250439,2.266542333,120.7704573,50.00250439,-6.393977668,7.297379913,-13.33974447,49.20365873,0.257548486,0,,,37.17,0,5,0.1,0,,3.4889324,50.786547,20200206,125252,2020-02-06T12:52:52Z,11.929,0.66,1.49,7.58,9,7,16,0,0,0,0,0,0,0,5,0,GPS_Atti,0,0,0,0,GPS_Atti,5,Hover,,,95.2381,Connected,3.488930433,50.786545,45,OK,15,10,0,0,,,,,,,,,,,3,0,-0.01,0.01,-5.26E-04,2.84E-04,2.37E-05,0.001609812,0,0,0.001609813,0,0.001609809,1.01E-04,0,0.90898556,1.01E-04,0,1.01E-04,,1000000,0,0,0,0,50,55,56,50,946,943,943,947,940,940,940,940,0,0.1,0,0,1528.2,1524.5,1524.5,1528.2,4.37,6.01,2.92,1.5,0,0,0,0,0,0,0,0,0,0,0,GPS_Atti,OTHER,NONE,ALREADY,False,Connected,,P,True,False,False,NONE,3.48891725,50.78653896,-55.93197,,,,,0,True,1,0,0,0,0,3.488917235,50.78653901,55.92825,3.4889255,50.7865365,58.267,-0.046887513,-0.014919635,0.007517563,0,24,26,0.56691706,0,16,50,0,18,4,0,101,,,
192795122,-2.473,3.488932554,50.78654717,16,-162.84088,-162.67348,-0.011372524,-0.03607015,-0.9869875,0.98771185,-0.09670038,-0.17635703,-0.110307425,0.22939157,436,-433,1383,1513,-0.001826725,0.008742417,-0.005856908,0.010680364,0.008931226,0.017531799,2.135888908,-0.734027545,50.00909102,2.258278167,121.0502996,50.00909102,-6.461952864,7.533320977,-13.71249649,49.16757741,0.283938944,0,,,37.47,0,5,0.1,0,,3.4889324,50.7865471,20200206,125253,2020-02-06T12:52:53Z,11.951,0.66,1.49,7.55,9,7,16,0,0,0,0,0,0,0,5,0,GPS_Atti,0,0,0,0,GPS_Atti,5,Hover,,,95.2381,Connected,3.488930433,50.786545,45,OK,15,10,0,0,,,,,,,,,,,3,0,-0.02,0.02,-5.28E-04,2.82E-04,2.34E-05,0.001607805,0,0,0.001607806,0,0.001607803,1.00E-04,0,0.90898746,1.00E-04,0,1.00E-04,,1000000,0,0,0,0,50,56,56,48,947,943,942,947,940,940,940,940,0,0.1,0,0,1528.2,1525.2,1525.2,1528.2,4.37,6.01,2.92,1.5,0,0,0,0,0,0,0,0,0,0,0,GPS_Atti,OTHER,NONE,ALREADY,False,Connected,,P,True,False,False,NONE,3.48891726,50.786539,-55.93507,,,,,0,True,1,0,0,0,0,3.48891726,50.78653905,55.929543,3.4889253,50.7865359,58.193,0.004170991,0.001204152,-0.019074991,0,24,26,0.56691706,0,16,50,0,18,4,0,106,,,
197302336,-1.472,3.488932324,50.78654704,16,-162.98885,-162.67523,-0.012205086,-0.03585197,-0.98757124,0.98829716,0.44523188,-1.3852648,-0.309663,1.4876428,436,-436,1386,1516,-0.007215072,0.009405602,-0.003150506,0.012265736,0.011854223,0.009714707,2.152457401,-0.749767205,50.01833802,2.279071457,120.8208958,50.01833802,-6.524285523,7.782348754,-14.09781519,49.39986044,0.263319741,0,,,37.71,0,5,0.1,0,,3.4889324,50.7865471,20200206,125254,2020-02-06T12:52:54Z,11.961,0.66,1.49,7.53,9,7,16,0.01,0,0.01,0,0,0,0,5,0,GPS_Atti,0,0,0,0,GPS_Atti,5,Hover,,,90.47619,Connected,3.488930433,50.786545,45,OK,15,10,0,0,,,,,,,,,,,3,0,0,0.02,-5.27E-04,2.85E-04,2.43E-05,0.001610866,0,0,0.001610866,0,0.001610862,1.01E-04,0,0.9089594,1.01E-04,0,1.01E-04,,1000000,0,0,0,0,49,56,57,50,946,943,943,947,940,940,940,940,0,0.1,0,0,1527,1524.5,1525.2,1527.6,4.37,6.01,2.92,1.5,0,0,0,0,0,0,0,0,0,0,0,GPS_Atti,OTHER,NONE,ALREADY,False,Connected,,P,True,False,False,NONE,3.488917285,50.786539,-55.93062,,,,,0,True,1,0,0,0,0,3.488917258,50.78653905,55.923874,3.4889253,50.7865356,58.121,-0.002684631,0.003370086,-4.19E-05,0,24,26,0.56691706,0,16,50,0,18,4,0,111,,,
201802366,-0.472,3.488932554,50.78654688,16,-162.86731,-162.6775,-0.011015557,-0.036104634,-0.9868877,0.9876094,-0.39032665,0.09207574,-0.27257317,0.48490098,436,-436,1386,1516,-0.001240145,0.009695923,-9.51E-04,0.00982111,0.009774911,0.014277682,2.148502253,-0.734688392,50.00913363,2.270422373,121.1380803,50.00913363,-6.594734213,8.025765232,-14.46714036,49.36992236,0.257140745,0,,,38.05,0,5,0.1,0,,3.4889326,50.786547,20200206,125255,2020-02-06T12:52:55Z,11.964,0.66,1.49,7.49,9,7,16,0,0,0.01,0,0,0,0,5,0,GPS_Atti,0,0,0,0,GPS_Atti,5,Hover,,,95.2381,Connected,3.488930433,50.786545,45,OK,15,10,0,0,,,,,,,,,,,3,0,0,0.01,-5.26E-04,2.86E-04,2.32E-05,0.001608031,0,0,0.001608031,0,0.001608028,1.01E-04,0,0.90898955,1.01E-04,0,1.01E-04,,1000000,0,0,0,0,49,56,55,50,946,943,943,947,940,940,940,940,0,0.1,0,0,1528.2,1523.9,1524.5,1527,4.37,6.01,2.92,1.5,0,0,0,0,0,0,0,0,0,0,0,GPS_Atti,OTHER,NONE,ALREADY,False,Connected,,P,True,False,False,NONE,3.48891734,50.78653897,-55.92536,,,,,0,True,1,0,0,0,0,3.488917273,50.78653901,55.928402,3.4889253,50.7865352,58.034,-0.004557208,0.003466456,0.005278185,0,24,27,0.56691706,0,16,50,0,18,4,0,116,,,
206302778,0.528,3.488932619,50.78654696,16,-162.66527,-162.6789,-0.020049423,-0.018961094,-0.9878104,0.9881958,0.50561225,-1.7026212,3.2490346,3.7028081,436,-442,1406,1536,-0.00795302,0.009660301,9.15E-05,0.012513205,0.012512871,-0.002366922,2.148200423,-0.75060484,50.1181464,2.275327994,120.8655115,50.1181464,-6.556308433,8.273826013,-14.85130767,49.80136714,0.008753512,0.010644282,,,38.37,600,5,0.1,0,,3.4889326,50.7865469,20200206,125256,2020-02-06T12:52:56Z,11.964,0.66,1.49,7.47,9,7,16,-0.01,0,0,0,0,0,0,5,0,ASST_TAKEOFF,0,0,0,0,ASST_TAKEOFF,5,Hover,,,95.2381,Connected,3.488932684,50.7865469,45,OK,15,10,0,0,false,false,false,false,false,false,false,false,false,false,3,-0.1,-0.06,0.01,-5.44E-04,2.76E-04,2.28E-05,0.001630558,0,0,0.001630558,0,0.001630556,1.02E-04,0,0.9088191,1.02E-04,0,1.02E-04,,1000000,307,319,769,302,46,52,49,47,1161,1157,1157,1161,1153,1153,1153,1153,0.1,0.1,0.1,0.1,1485.9,1481.6,1482.8,1484,11.24,10.88,8.32,11.28,0,0,0,0,0.3,0,0,0,0,0,0,ASST_TAKEOFF,OTHER,WP_AUTO_TAKEOFF,ALREADY,False,Connected,,P,True,False,False,NONE,3.488917298,50.78653897,-55.922695,4.26,4.26,4.26,4.26,1,True,1,0,0,0,0,3.488917222,50.78653896,55.927315,3.4889254,50.786535,57.953,-0.005096118,1.87E-04,-0.002909212,0,24,27,0.56691706,0,16,50,0,18,4,0,121,,,
210802922,1.528,3.4889324,50.78654675,16,-164.2031,-162.68327,-0.013107259,-0.035960656,-0.9856492,0.9863921,-1.5189992,1.9257108,1.1621782,2.7141073,451,-433,1402,1535,-0.012953818,0.012923455,0.00318273,0.018572746,0.018298008,0.009943424,2.140949404,-0.729494524,50.09807828,2.26160046,121.2895471,50.09807828,-6.721091174,8.516727769,-15.21782171,48.22454971,0.025754498,0.052635876,,,38.6,1500,5,0.1,0,,3.4889325,50.7865468,20200206,125257,2020-02-06T12:52:57Z,11.959,0.66,1.49,7.45,9,7,16,0.01,0,-0.01,0,0,0,0,5,0,AutoTakeoff,0,0,0,0,AutoTakeoff,5,Hover,,,95.2381,Connected,3.488932684,50.7865469,45,OK,15,10,0,0,false,false,false,false,false,false,false,false,false,false,3,0.03,-0.02,0.01,-5.22E-04,2.67E-04,2.50E-05,0.001647957,0,0,0.001647957,0,0.001647955,1.03E-04,0,0.90823585,1.03E-04,0,1.03E-04,,1000000,2485,2376,2335,2508,44,49,49,45,1311,1293,1290,1300,1321,1296,1287,1313,0,0,0,0,1522.7,1520.8,1519.6,1523.9,0.16,0.17,0.1,0.42,0,0,0,0,0.3,0,0,0,0,0,0,ASST_TAKEOFF,OTHER,WP_AUTO_TAKEOFF,ALREADY,False,Connected,,P,True,False,False,NONE,3.488917237,50.7865389,-55.929085,25.51,22.14,21.53,25.07,1,True,1,0,0,0,0,3.488917266,50.786539,55.930466,3.4889253,50.7865347,57.869,0.001358615,-0.001413286,-0.008889655,0,24,27,0.56691706,0,16,50,0,18,4,0,126,,,
215302945,2.528,3.488932525,50.78654663,16,-166.05801,-162.64189,-0.017201785,-0.022434603,-1.1678352,1.1681774,-0.26175413,-3.2569416,-0.3828109,3.2897913,420,-497,1396,1540,-0.05248701,-5.79E-04,-0.38700908,0.3905525,0.052490203,-0.037004538,-0.338420548,0.449464518,49.82299982,0.562616587,-93.19963178,49.82299982,-7.115587085,6.164588154,-14.36805784,48.59515207,0.031111772,0.089497519,,,38.92,2500,5,0.1,0,,3.4889325,50.7865468,20200206,125258,2020-02-06T12:52:58Z,11.955,0.66,1.49,7.41,9,7,16,-0.01,0,0,0,0,0,0,5,0,AutoTakeoff,0,0,0,0,AutoTakeoff,5,Hover,,,95.2381,Connected,3.488932684,50.7865469,45,OK,15,10,0,0,false,false,false,false,false,false,false,false,false,false,3,-0.43,-0.1,-2.12,-5.99E-04,2.77E-04,-1.52E-04,0.002001485,0,0,0.002001484,0,0.002001485,1.25E-04,0,0.90989447,1.25E-04,0,1.25E-04,,1000000,5206,5212,5415,5344,43,48,47,44,1676,1688,1702,1702,1676,1672,1691,1688,0,0,0,0,1433.1,1431.3,1430.1,1432.5,4.96,5.98,5.82,6.18,0,0,0,0,0.3,0,0,0,0,16256,0,AutoTakeoff,OTHER,WP_AUTO_TAKEOFF,ALREADY,False,Connected,,P,True,False,False,NONE,3.488917336,50.78653886,-55.973,69.86,69.09,71.03,71,2,True,0,0.15,0,0,0,3.488917238,50.78653894,55.933334,3.4889253,50.7865346,57.819,5.98E-04,-0.001081958,-0.004716826,0,24,27,0.56691706,0,16,50,0,15,4,0,130,,,
219802975,3.528,3.488932029,50.78654625,16,-162.11584,-162.17189,-0.013214638,-0.006071153,-0.98831844,0.98842543,1.0962741,1.4812744,0.7759812,1.9995344,454,-478,1380,1529,-0.018085143,-0.05682989,-0.41367397,0.4179508,0.059638147,-0.00423784,0.383736881,-1.660917142,49.8874227,1.704621609,62.89338932,49.8874227,-7.150294462,7.131669534,-16.95421482,49.65202346,0.085543563,0.15831168,,,39.21,3400,5,0.6,0.400000006,,3.4889321,50.7865463,20200206,125259,2020-02-06T12:52:59Z,12.488,0.66,1.5,7.33,9,7,16,-0.06,-0.11,-0.42,0,0,0,0,5,0,AutoTakeoff,0,0,0,0,AutoTakeoff,5,Hover,,,95.2381,Connected,3.488932684,50.7865469,45,OK,15,10,0,0,false,false,false,false,false,false,false,false,false,false,4,-0.19,-0.74,-4.89,-9.59E-04,-2.28E-04,-0.00492035,0.001674244,0,0,0.001674246,0,0.001674243,1.05E-04,0,0.9092576,1.05E-04,0,1.05E-04,,1000000,5092,5111,5236,5238,44,50,51,44,1665,1677,1691,1690,1654,1664,1686,1679,0,0,0,0,1434.4,1430.7,1429.5,1434.4,5.22,5.78,5.74,5.89,0,0,0,0,0.30011913,0.014372715,0.004170801,0.013754249,-20164,17295,0,AutoTakeoff,OTHER,WP_AUTO_TAKEOFF,ALREADY,False,Connected,,P,True,False,False,NONE,3.488916436,50.78653847,-56.510357,66.86,67.97,70.86,69.93,2,True,0,0,0,0,0,3.488916642,50.78653859,56.412212,3.4889251,50.7865343,58.054,-0.040192742,-0.038309015,-0.56187266,0,25,27,0.5482813,0,16,50,0,15,4,0,135,,,
224303071,4.528,3.488931603,50.7865459,16,-161.60541,-161.6617,-0.007051734,-0.015577963,-1.0158828,1.0160267,-0.14821722,-2.6040907,-2.1885839,3.4048724,451,-475,1396,1542,0.016945522,-0.024365244,-0.45581675,0.45678192,0.029678542,0.018916039,0.759269781,-1.041152578,49.75054031,1.288501277,85.85086841,49.75054031,-7.384791227,7.751385211,-16.65618394,49.21762137,0.133999002,0.227863771,,,39.43,4400,5,1.1,0.899999976,,3.4889316,50.786546,20200206,125300,2020-02-06T12:53:00Z,13.013,0.66,1.5,7.26,9,7,16,0.01,-0.05,-0.5,0,0,0,0,5,0,NaviGo,0,0,0,0,NaviGo,5,Hover,,,95.2381,Connected,3.488932684,50.7865469,45,OK,15,10,0,0,false,false,false,false,false,false,true,false,false,false,4,0.13,-0.39,-5.3,-8.45E-04,-6.97E-04,-0.009657321,0.001029103,0,0,0.001029102,0,0.001029077,6.43E-05,0,0.90946543,6.43E-05,0,6.43E-05,1.1600729,0.08,5166,5178,5377,5289,46,50,50,45,1681,1687,1709,1700,1664,1674,1703,1683,0,0,0,0,1425.8,1424,1424.6,1424.6,5.63,6.1,6.32,6.28,0,0,0,0,0.30223835,0.055823464,0.01734158,0.053061556,-1518,17294,0,NaviGo,OTHER,NONE,ALREADY,False,Connected,,P,True,False,False,NONE,3.48891579,50.78653863,-56.97888,67.79,68.97,73.12,70.48,2,True,0,0,0,0,0,3.488915737,50.78653863,56.922745,3.4889238,50.7865338,58.548,0.008832279,-0.044668827,-0.60570455,0,25,25,0.54828334,0,16,50,0,15,4,0,140,,,
228803133,5.528,3.488931135,50.78654582,16,-161.02615,-160.92175,-0.010028068,-0.01444369,-1.343585,1.3437,2.4577317,-14.903541,-0.33412766,15.108528,448,-478,1402,1547,0.006328285,-0.047506623,-1.7172985,1.7179672,0.047926258,-0.01366088,0.960683131,-0.992869573,49.52980774,1.381424139,93.58571362,49.52980774,-7.734268352,8.191292293,-16.94955848,49.79784986,0.162006036,0.284276394,,,39.73,5400,5,1.9,1.700000048,,3.4889311,50.786546,20200206,125301,2020-02-06T12:53:01Z,13.652,0.66,1.5,7.19,9,7,16,-0.05,-0.14,-0.73,0,0,0,0,5,0,NaviGo,0,0,0,0,NaviGo,5,Hover,,,95.2381,Connected,3.488932684,50.7865469,45,OK,15,10,0,1,false,false,false,false,false,false,true,false,false,false,5,-0.08,-0.7,-15.7,-7.14E-04,-0.001234062,-0.016647467,0.001338064,0,0,0.001338068,0,0.001337959,8.36E-05,0,0.9105214,8.36E-05,0,8.36E-05,1.8430113,0.125,6032,6003,6218,6126,45,51,50,44,1784,1781,1800,1794,1771,1776,1796,1781,0,0,0,0,1374.3,1371.8,1372.4,1373.7,7.62,8.12,8.36,8.42,0,0,0,0,0.30400628,0.08349057,0.018352574,0.0814485,25224,17294,0,NaviGo,OTHER,NONE,ALREADY,False,Connected,,P,True,False,False,NONE,3.488915042,50.78653876,-57.662327,81.21,81.85,84.93,82.97,2,True,0,0.15,0,0,0,3.488914907,50.78653887,57.552124,3.4889235,50.7865345,58.974,0.01980036,-0.07354161,-0.6959206,0,24,27,0.5669042,0,16,50,0,15,4,0,145,,,
233303206,6.528,3.488930854,50.78654574,16,-157.16074,-157.6395,-0.015423853,-0.005315435,-1.3137132,1.3138145,1.7041131,-0.7914343,-0.4247859,1.926347,461,-490,1412,1564,-0.038991656,-0.001939092,-5.0387,5.0388513,0.039039844,-0.017583082,0.73861762,-0.684824824,49.48705891,1.007192695,96.65149514,49.48705891,-7.894799804,8.195148102,-17.12362496,48.84433443,0.181708949,0.36074118,,,40.07,6300,5,4.7,4.5,,3.4889304,50.7865459,20200206,125302,2020-02-06T12:53:02Z,15.843,0.66,1.5,7.14,9,7,16,-0.16,-0.24,-2.44,0,0,0,0,5,0,NaviGo,0,0,0,0,NaviGo,5,Hover,,,95.2381,Connected,3.488932684,50.7865469,45,OK,15,10,0,3,false,false,false,false,false,false,true,false,false,false,11,-0.77,-0.1,-47.62,-0.001208864,-0.001651041,-0.04572325,0.003308834,0,0,0.003308833,0,0.003308839,2.07E-04,0,0.9105452,2.07E-04,0,2.07E-04,4.8756366,0.33333334,6529,6389,6751,6621,45,50,50,44,1828,1820,1847,1844,1815,1814,1840,1825,0,0,0,0,1341.7,1339.3,1338.7,1338.1,8.86,8.98,9.8,10.03,0,0,0,0,0.30693942,0.10706877,0.016755914,0.105749525,10442,17295,0,NaviGo,OTHER,NONE,ALREADY,False,Connected,,P,True,False,False,NONE,3.48891442,50.78653888,-60.822308,86.92,86.72,89.94,88.07,2,False,0,0.15,0,0,0,3.488913919,50.78653894,60.6666,3.4889224,50.786535,61.004,0.015247344,-0.06412376,-4.1838036,0,24,26,0.56690264,0,16,50,0,15,4,0,150,,,
237803285,7.528,3.488930286,50.7865454,16,-151.04839,-151.65901,-0.017280383,-0.017413031,-0.99919385,0.99949497,2.8306575,5.7501564,-0.46010864,6.4256225,442,-487,1422,1566,-0.0477219,0.015007677,-6.4924135,6.492606,0.050026095,0.005092497,0.539596414,-0.413563131,49.52292901,0.679837134,102.0556113,49.52292901,-7.989505554,8.214595714,-17.24558328,49.2098379,0.236816531,0.453553433,,,40.35,7300,5,10.7,10.60000038,,3.4889301,50.7865456,20200206,125303,2020-02-06T12:53:03Z,21.252,0.66,1.5,7.08,9,7,16,-0.11,-0.17,-5.05,0,0,0,0,5,0,NaviGo,0,0,0,0,NaviGo,5,Hover,,,95.2381,Connected,3.488932684,50.7865469,45,OK,15,10,0,7,false,false,false,false,false,false,true,false,false,false,38,-1.75,1.13,-68.04,-0.002925145,-9.54E-04,-0.108476736,0.006984035,0,0,0.006984063,0,0.006984012,4.37E-04,0,0.91048205,4.37E-04,0,4.37E-04,9.220316,0.6666667,6121,6021,6383,6224,45,49,50,45,1797,1791,1819,1817,1780,1780,1810,1792,0,0,0,0,1357.1,1355.8,1359,1363.8,7.17,8.17,8.99,8.08,0,0,0,0,0.30918038,0.10706877,0.016755914,0.105749525,-3619,17297,0,NaviGo,OTHER,NONE,ALREADY,False,Connected,,P,True,False,False,NONE,3.488913874,50.78653914,-66.50149,83.79,83.74,87.26,85.11,2,False,0,0,0,0,0,3.488913583,50.7865392,65.28747,3.4889214,50.7865351,65.09,0.05374718,-0.014486264,-6.3038607,0,24,26,0.56690264,0,16,50,0,24,4,0,154,,,
242303333,8.528,3.488930458,50.78654589,16,-145.18001,-145.44273,-0.020049758,-0.010174774,-0.99157166,0.99182653,4.7878504,-5.1421437,0.41101602,7.038046,436,-469,1435,1571,8.02E-04,0.03241379,-6.215019,6.215104,0.032423719,0.023430044,1.352466004,-0.212522499,49.60000587,1.36904951,130.671333,49.60000587,-8.060398066,9.283931996,-17.34452793,49.41201957,0.192344909,0.525704888,,,40.64,8200,5,16.5,16.5,,3.4889303,50.786546,20200206,125304,2020-02-06T12:53:04Z,27.335,0.66,1.5,7.03,9,7,16,0.08,0,-5.82,0,0,0,0,5,0,NaviGo,0,0,0,0,NaviGo,5,Hover,,,100,Connected,3.488932684,50.7865469,45,OK,15,10,0,11,false,false,false,false,false,false,true,false,false,false,38,,,,,,,0.008453775,0,0,0.008453772,0,0.00845378,5.28E-04,0,0.9101613,5.28E-04,0,5.28E-04,,1000000,6006,5900,6216,6151,46,52,51,46,1781,1776,1797,1791,1768,1768,1792,1780,0,0,0,0,1372.4,1370.6,1370.6,1372.4,7.11,7.74,7.82,8.02,0,0,0,0,0.31188318,0.10706877,0.016755914,0.105749525,18437,17301,0,NaviGo,OTHER,NONE,ALREADY,False,Connected,,P,True,False,False,NONE,3.488913798,50.7865398,-72.505104,80.97,80.92,84.2,82.74,2,False,0,0,0,0,0,3.488913557,50.78653988,71.41122,3.4889205,50.7865353,71.321,0.087482475,-7.93E-04,-5.9335523,0,23,27,0.5838727,0,16,50,0,24,4,0,159,,,
246803455,9.528,3.488930788,50.78654586,16,-139.40732,-139.93936,-0.011581103,-0.008551817,-1.0244107,1.0245119,2.4255207,8.080346,-0.33384472,8.443139,454,-469,1422,1564,-0.0543248,0.026454113,-6.065989,6.06629,0.060423537,-0.037029657,1.219860223,-1.285322725,49.60710013,1.771754908,93.10977816,49.60710013,-8.180731591,9.443614031,-18.82428695,49.77381101,0.175910137,0.600318871,,,40.93,9200,5,,22.29999924,,3.4889307,50.7865461,20200206,125305,2020-02-06T12:53:05Z,33.159,0.66,1.5,6.98,9,7,16,-0.03,-0.01,-5.84,0,0,0,0,5,0,NaviGo,0,0,0,0,NaviGo,5,Hover,,,95.2381,Connected,3.488932684,50.7865469,45,OK,15,10,0,15,false,false,false,false,false,false,false,false,false,false,38,,,,,,,0.009484483,0,0,0.009484485,0,0.009484483,5.93E-04,0,0.9099725,5.93E-04,0,5.93E-04,,1000000,6137,6016,6293,6194,46,50,51,46,1796,1785,1810,1801,1781,1778,1807,1793,0,0,0,0,1363.2,1358.3,1360.2,1363.8,7.64,7.8,8.24,8.29,0,0,0,0,0.31539857,0.10706877,0.016755914,0.105749525,30362,17304,0,NaviGo,OTHER,NONE,ALREADY,False,Connected,,P,True,False,False,NONE,3.488913769,50.78653989,-78.12815,82.8,82.48,85.88,83.98,2,False,0,0,0,0,0,3.488913579,50.78654014,77.24118,3.4889201,50.7865353,77.093,-0.003636456,-0.014957639,-5.8341093,0,23,27,0.5838727,0,16,50,0,24,4,0,164,,,
251303496,10.528,3.488931289,50.78654525,16,-133.39645,-134.5311,-0.019658023,-0.015266329,-0.9897527,0.99006563,-1.2188141,2.2966723,-0.08449532,2.6014135,454,-472,1425,1568,-0.08097513,0.022832546,-6.036567,6.0371537,0.084132615,-0.007477145,0.805261848,-1.103385454,49.56141627,1.365864397,85.68218524,49.56141627,-8.382249818,9.363684845,-19.05038988,49.07080519,0.207510499,0.708743683,,,41.26,10200,5,,27.89999962,,3.4889312,50.7865454,20200206,125306,2020-02-06T12:53:06Z,39.191,0.66,1.5,6.93,9,7,16,-0.06,0,-6.02,0,0,0,0,5,0,NaviGo,0,0,0,0,NaviGo,5,Hover,,,95.2381,Connected,3.488932684,50.7865469,45,OK,16,11,0,18,false,false,false,false,false,false,false,false,false,false,38,,,,,,,0.010840377,0,0,0.010840312,0,0.010840663,6.78E-04,0,0.91004586,6.78E-04,0,6.78E-04,,1000000,6136,5980,6331,6218,46,52,50,46,1795,1785,1811,1803,1786,1777,1806,1795,0,0,0,0,1362.6,1345.5,1358.3,1361.4,7.28,7.74,8.24,8.17,0,0,0,0,0.31836203,0.10706877,0.016755914,0.105749525,-3901,17306,0,NaviGo,OTHER,NONE,ALREADY,False,Connected,,P,True,False,False,NONE,3.488914009,50.78653949,-83.95938,83.4,82.17,85.84,84.49,2,False,0,0,0,0,0,3.488913749,50.78653975,83.275055,3.4889196,50.7865345,82.979,-0.04982266,0.010666749,-6.117835,0,23,27,0.5838727,0,16,50,0,24,4,0,169,,,
255804493,11.529,3.488931705,50.78654476,16,-127.796555,-128.74658,-0.009246804,-0.013885342,-0.79038364,0.79055965,3.6284869,-2.3419166,-0.24889204,4.3257875,464,-457,1416,1558,-0.05296034,0.02645003,-5.9234114,5.9237075,0.059197988,0.002894444,0.918611395,-1.486675139,49.67105672,1.747367361,81.37927611,49.67105672,-8.425093364,9.790723747,-19.81219005,48.30298515,0.247416234,0.820741458,,,41.47,11100,5,,33.40000153,,3.4889315,50.786545,20200206,125307,2020-02-06T12:53:07Z,44.167,0.66,1.5,6.9,9,7,16,-0.04,0,-6.17,0,0,0,0,5,0,NaviGo,0,0,0,0,NaviGo,5,Hover,,,95.2381,Connected,3.488932684,50.7865469,45,OK,16,11,0,22,false,false,false,false,false,false,false,false,false,false,38,,,,,,,0.011092081,0,0,0.011092069,0,0.011092197,6.93E-04,0,0.9100563,6.93E-04,0,6.93E-04,,1000000,5658,5542,5762,5707,47,51,52,45,1727,1718,1742,1736,1715,1708,1735,1722,0,0,0,0,1406.7,1402.5,1402.5,1406.7,4.81,5.4,5.67,5.71,0,0,0,0,0.32014254,0.10706877,0.016755914,0.105749525,-8869,17309,0,NaviGo,OTHER,NONE,ALREADY,False,Connected,,P,True,False,False,NONE,3.488914115,50.78653925,-89.977005,75.12,73.97,77.27,75.77,2,False,0,0,0,0,0,3.488913905,50.78653944,89.49876,3.4889193,50.7865338,89.12,-0.024961999,0.01938847,-6.245039,0,23,27,0.5838727,0,16,50,0,24,4,0,174,,,
260304678,12.529,3.488932162,50.78654458,16,-124.13509,-125.20461,-0.018614607,-0.014039161,-0.7629342,0.7632904,0.5552004,2.5435662,0.27178767,2.617603,461,-429,1416,1549,0.001920013,0.08738996,-1.3457594,1.3485951,0.087411052,-0.049856956,1.736786273,-1.691427842,49.7719199,2.423603246,95.53040398,49.7719199,-8.462706337,10.90130751,-20.36941523,48.35963172,0.259603669,0.906612403,,,41.81,12100,5,,37.40000153,,3.4889323,50.7865449,20200206,125308,2020-02-06T12:53:08Z,48.946,0.66,1.5,6.86,9,7,16,0.28,0.27,-4.5,0,0,0,0,5,0,NaviGo,0,0,0,0,NaviGo,5,Hover,,,90.47619,Connected,3.488932684,50.7865469,45,OK,16,11,0,24,false,false,false,false,false,false,false,false,false,false,38,,,,,,,0.011199016,0,0,0.011199054,0,0.011198914,7.00E-04,0,0.9096316,7.00E-04,0,7.00E-04,,1000000,4576,4538,4814,4717,47,53,53,46,1612,1612,1650,1639,1606,1609,1647,1636,0,0,0,0,1428.8,1424,1424,1428.8,4.41,5,5.36,5.59,0,0,0,0,0.3253618,0.117236085,0.018775718,0.11572282,30478,17310,0,NaviGo,OTHER,NONE,ALREADY,False,Connected,,P,True,False,False,NONE,3.488914169,50.78653919,-93.51279,61.21,61.5,66.08,64.44,2,False,0,0,0,0,0,3.488914236,50.78653947,92.99094,3.4889193,50.7865335,93.579,-0.00438566,0.027005853,-3.1581757,0,23,27,0.5838727,0,16,50,0,22,4,0,178,,,
264807702,13.529,3.488933612,50.78654396,16,-122.64445,-124.14477,-0.022953618,-0.013388136,-0.91351676,0.9139032,0.22542143,-0.053623736,0.3354325,0.40768284,442,-460,1419,1555,-0.007922666,0.1116488,-0.8889521,0.895971,0.111929541,0.010990404,0.641969564,-0.800990139,49.69798704,1.026451532,88.40846341,49.69798704,-8.644320965,10.00717195,-19.83304706,48.4204655,0.332369436,1.053493778,,,42.1,13000,5,,38.40000153,,3.4889334,50.7865444,20200206,125309,2020-02-06T12:53:09Z,50.309,0.66,1.5,6.82,9,7,16,0.04,0.12,-1.89,0,0,0,0,5,0,NaviGo,0,0,0,0,NaviGo,5,Hover,,,95.2381,Connected,3.488932684,50.7865469,45,OK,16,11,0,25,false,false,false,false,false,false,false,false,false,false,38,,,,,,,0.007646729,0,0,0.007646738,0,0.007646767,4.78E-04,0,0.9097587,4.78E-04,0,4.78E-04,,1000000,4949,4910,5166,5115,47,53,54,48,1655,1650,1685,1682,1645,1646,1680,1663,0,0,0,0,1422.7,1418.4,1419,1421.5,4.47,4.92,5.4,5.71,0,0,0,0,0.33162552,0.1539698,0.027996833,0.15140302,-10688,17307,0,NaviGo,OTHER,NONE,ALREADY,False,Connected,,P,True,False,False,NONE,3.488915013,50.78653879,-94.45274,65.74,65.84,70,67.75,2,False,0,0,0,0,0,3.488914972,50.78653908,94.28916,3.4889207,50.7865342,95.021,-0.06478593,0.052902147,-1.1690133,0,24,24,0.5668924,0,16,50,0,22,4,0,183,,,
269307755,14.529,3.488933068,50.78654343,16,-122.92877,-123.81717,-0.021060083,-0.011688313,-0.9793008,0.9795969,2.8111582,0.47583175,-8.763192,9.215343,543,-344,1412,1551,-0.014635064,-0.035108995,0.006307796,0.038556647,0.038037174,0.032614043,0.623186506,-1.459800041,37.48124774,1.587148881,60.59515164,37.48124774,-21.49395377,9.999989614,-20.95864417,35.32985884,0.386295115,1.165817976,,,42.34,14000,5,,38.79999924,,3.4889331,50.7865437,20200206,125310,2020-02-06T12:53:10Z,50.865,0.66,1.5,6.79,9,7,16,0.05,-0.03,-0.66,0,0,0,0,5,0,NaviGo,0,0,0,0,NaviGo,5,Hover,,,95.2381,Connected,3.488932684,50.7865469,45,OK,16,11,0,25,false,false,false,false,false,false,false,false,false,false,38,,,,,,,0.013017102,0,0,0.013017111,0,0.013018805,8.14E-04,0,0.9458657,8.14E-04,0,8.14E-04,,1000000,5192,4951,5351,5141,49,52,52,49,1685,1657,1710,1684,1675,1653,1703,1672,0,0,0,0,1416.6,1412.9,1412.3,1416,4.74,5.05,6,5.63,0,0,0,0,0.325302,0.18850787,0.037787475,0.18468168,22998,17304,0,NaviGo,OTHER,NONE,ALREADY,False,Connected,,P,True,False,False,NONE,3.488914374,50.78653826,-94.79591,70.08,67.2,72.54,68.65,2,False,0,0,0,0,0,3.488914219,50.78653854,94.764755,3.48892,50.7865331,95.692,-0.03666353,-0.11653052,0.017069194,0,25,27,0.548302,0,16,50,0,22,4,0,188,mcID(SN)|0UYKFCK002007Z,,
273807763,15.529,3.488932442,50.78654441,16,-122.607864,-123.840004,-0.03654804,-0.014084827,-1.0253738,1.0261216,5.112983,-21.848038,0.866194,22.45506,871,-326,1220,1534,0.54339576,0.34960264,-0.019731376,0.6464443,0.646143129,-0.528968991,1.156112726,-16.93444337,36.22028674,16.96946575,40.01226321,36.22028674,-23.04418828,10.94204396,-37.45250706,36.14889003,0.277275193,1.347880451,27.23806726,27.98938475,42.62,15000,5,,38.79999924,,3.4889317,50.7865443,20200206,125311,2020-02-06T12:53:11Z,50.865,0.66,1.5,6.78,9,7,16,0.29,0.01,-0.14,0,0,0,0,5,0,NaviGo,0,0,0,0,NaviGo,5,Hover,,,85.71429,Connected,3.488932684,50.7865469,45,OK,16,11,0,25,false,false,false,false,false,false,false,false,false,false,,,,,,,,0.015801772,0,0,0.015802199,0,0.01580537,9.88E-04,0,0.9439637,9.88E-04,0,9.88E-04,,1000000,5075,5118,5373,5417,47,53,54,47,1678,1677,1711,1723,1672,1671,1706,1712,0,0,0,0,1410.5,1406.7,1405.5,1410.5,4.52,5.36,5.87,6.47,0,0,0,0,0.32778555,0.21324185,0.050534375,0.20716748,-29918,17301,0,NaviGo,OTHER,NONE,ALREADY,False,Connected,,P,True,False,False,NONE,3.488913569,50.78653913,-94.74825,69.39,69.32,73.13,73.79,2,False,0,0.12500001,0,0,0,3.488912819,50.78653919,94.751785,3.4889179,50.786533,95.557,0.12403566,-0.100336686,0.019319205,0,25,27,0.548304,0,16,50,0,22,4,0,193,mcVer|v3.3.6.37,,
278307816,16.529,3.488945034,50.78655949,16,-122.1705,-123.81572,-0.11707687,-0.002410085,-1.0142535,1.0209911,2.1974096,2.5218136,1.8603326,3.8274,978,-280,1158,1541,2.7996447,1.8157166,-0.01447054,3.3369217,3.336890341,-1.43998362,3.373204287,-20.66921325,36.26875558,20.8984212,45.14876347,36.26875558,-22.78504038,14.10006226,-42.06216163,34.13354041,1.64817003,3.330851629,30.05855929,30.80987678,42.97,15900,5,,38.79999924,,3.4889391,50.7865541,20200206,125311,2020-02-06T12:53:11Z,50.878,0.66,1.5,6.8,9,7,16,2.08,1.15,-0.05,0,0,0,0,5,0,NaviGo,0,0,0,0,NaviGo,5,Hover,,,95.2381,Connected,3.488932684,50.7865469,45,OK,16,11,3,25,false,false,false,false,false,false,false,false,false,false,37,,,,,,,0.017987715,0,0,0.017990619,0,0.01798505,0.001124232,0,0.9466973,0.001124414,0,0.001124066,,1000000,4761,4810,5683,5715,48,53,53,47,1637,1645,1744,1747,1627,1644,1740,1729,0,0,0,0,1408,1404.3,1403.1,1408.6,3.93,4.71,6.67,7.38,0,0,0,0,0.46726167,0.24850844,0.06500703,0.23985523,-24261,17298,0,NaviGo,OTHER,NONE,ALREADY,False,Connected,,P,True,False,False,NONE,3.48892667,50.78655431,-94.78075,63.41,66,77.56,75.84,2,False,0,0.15,0,0,0,3.488924575,50.78655345,94.766945,3.4889233,50.7865416,95.465,2.3407164,1.3370581,0.001199247,0,25,27,0.548306,0,16,50,0,22,4,0,198,,,
