Tick#,offsetTime,IMU_ATTI(0):Longitude,IMU_ATTI(0):Latitude,IMU_ATTI(0):numSats,IMU_ATTI(0):barometer:Raw,IMU_ATTI(0):barometer:Smooth,IMU_ATTI(0):accel:X,IMU_ATTI(0):accel:Y,IMU_ATTI(0):accel:Z,IMU_ATTI(0):accel:Composite,IMU_ATTI(0):gyro:X,IMU_ATTI(0):gyro:Y,IMU_ATTI(0):gyro:Z,IMU_ATTI(0):gyro:Composite,IMU_ATTI(0):mag:X,IMU_ATTI(0):mag:Y,IMU_ATTI(0):mag:Z,IMU_ATTI(0):mag:Mod,IMU_ATTI(0):velN,IMU_ATTI(0):velE,IMU_ATTI(0):velD,IMU_ATTI(0):velComposite,IMU_ATTI(0):velH,IMU_ATTI(0):GPS-H,IMU_ATTI(0):roll,IMU_ATTI(0):pitch,IMU_ATTI(0):yaw,IMU_ATTI(0):tiltInclination,IMU_ATTI(0):tiltDirection,IMU_ATTI(0):yaw360,IMU_ATTI(0):totalGyro:Z,IMU_ATTI(0):totalGyro:X,IMU_ATTI(0):totalGyro:Y,IMU_ATTI(0):magYaw,IMU_ATTI(0):distanceHP,IMU_ATTI(0):distanceTravelled,IMU_ATTI(0):directionOfTravel[mag],IMU_ATTI(0):directionOfTravel[true],IMU_ATTI(0):temperature,flightTime,navHealth,General:vpsHeight,General:relativeHeight,General:absoluteHeight,GPS(0):Long,GPS(0):Lat,GPS(0):Date,GPS(0):Time,GPS:dateTimeStamp,GPS(0):heightMSL,GPS(0):hDOP,GPS(0):pDOP,GPS(0):sAcc,GPS(0):numGPS,GPS(0):numGLNAS,GPS(0):numSV,GPS(0):velN,GPS(0):velE,GPS(0):velD,RC:Aileron,RC:Elevator,RC:Rudder,RC:Throttle,Controller:sig_level,Controller:mode_switch,flyCState,Controller:Aileron,Controller:Elevator,Controller:Rudder,Controller:Throttle,Controller:ctrlMode,Controller:navHealth,RC:failSafe,RC:dataLost,RC:appLost,RC:sigStrength,RC:connected,HP:Longitude,HP:Latitude,HP:rthHeight,Battery:status,SMART_BATT:goHome%,SMART_BATT:land%,SMART_BATT:goHomeTime,SMART_BATT:landTime,OA:avoidObst,OA:emergBrake,OA:radiusLimit,OA:airportLimit,OA:groundForceLanding,OA:horizNearBoundary,OA:vertLowLimit,OA:vertAirportLimit,OA:roofLimit,OA:hitGroundLimit,OA:frontDistance,MVO:velX,MVO:velY,MVO:velZ,MVO:posX,MVO:posY,MVO:posZ,MVO:hoverPointUncertainty1,MVO:hoverPointUncertainty2,MVO:hoverPointUncertainty3,MVO:hoverPointUncertainty4,MVO:hoverPointUncertainty5,MVO:hoverPointUncertainty6,MVO:velocityUncertainty1,MVO:velocityUncertainty2,MVO:velocityUncertainty3,MVO:velocityUncertainty4,MVO:velocityUncertainty5,MVO:velocityUncertainty6,MVO:height,MVO:heightUncertainty,Motor:Speed:RFront,Motor:Speed:LFront,Motor:Speed:LBack,Motor:Speed:RBack,Motor:EscTemp:RFront,Motor:EscTemp:LFront,Motor:EscTemp:LBack,Motor:EscTemp:RBack,Motor:PPMrecv:RFront,Motor:PPMrecv:LFront,Motor:PPMrecv:LBack,Motor:PPMrecv:RBack,Motor:PPMsend:RFront,Motor:PPMsend:LFront,Motor:PPMsend:LBack,Motor:PPMsend:RBack,Motor:V_out:RFront,Motor:V_out:LFront,Motor:V_out:LBack,Motor:V_out:RBack,Motor:Volts:RFront,Motor:Volts:LFront,Motor:Volts:LBack,Motor:Volts:RBack,Motor:Current:RFront,Motor:Current:LFront,Motor:Current:LBack,Motor:Current:RBack,Motor:Status:RFront,Motor:Status:LFront,Motor:Status:LBack,Motor:Status:RBack,AirComp:AirSpeedBody:X,AirComp:AirSpeedBody:Y,AirComp:Alti,AirComp:VelNorm,AirComp:VelTime:1,AirComp:VelTime:2,AirComp:VelLevel,flyCState,flycCommand,flightAction,nonGPSCause,compassError,connectedToRC,Battery:lowVoltage,RC:ModeSwitch,gpsUsed,visionUsed,notEnoughForce,IMUEX(0):err,IMUEX(0):rtk_Longitude,IMUEX(0):rtk_Latitude,IMUEX(0):rtk_Alti,MotorCtrl:PWM:RFront,MotorCtrl:PWM:LFront,MotorCtrl:PWM:LBack,MotorCtrl:PWM:RBack,AirCraftCondition:fsmState,AirCraftCondition:nearGround,AirCraftCondition:landState,AirCraftCondition:UP_acc_t,AirCraftCondition:UP_TF_t,RTKdata:Date,RTKdata:Time,RTKdata:Lon_P,RTKdata:Lat_P,RTKdata:Hmsl_P,RTKdata:Lon_S,RTKdata:Lat_S,RTKdata:Hmsl_S,RTKdata:Vel_N,RTKdata:Vel_E,RTKdata:Vel_D,RTKdata:YAW,RTKdata:SVN_S,RTKdata:SVN_P,RTKdata:hdop,RTKdata:pitch,RTKdata:posFlg_0,RTKdata:posFlg_1,RTKdata:posFlg_2,RTKdata:posFlg_3,RTKdata:posFlg_4,RTKdata:posFlg_5,RTKdata:GpsState,Attribute|Value,ConvertDatV3,3.7.1
0,-45.317
62283591,-31.476,,,16,-162.34413,-162.79417,-0.013638768,-0.036681928,-0.98382425,0.98460233,-0.20537317,-0.55940914,0.5306851,0.79796207,436,-433,1383,1513.0,0.004967273,0.0020875202,0.23926185,0.23932251,0.005388092781108802,-0.005388092781108802,2.061630007285146,-0.7984012579550913,49.49698638895061,2.2105798402179193,118.33432491741692,49.49698638895063,-2.2704749869949548,1.4470672747177615,-3.1269268875378993,49.16891007614503,,0.0,,,29.09,0,2,,,,3.4889204,50.7865454,20200206,125225,2020-02-06T12:52:25Z,10.063,0.67,1.49,15.44,9,7,16,0.01,0.0,-0.03,0,0,0,0,2,0,GPS_Atti,0,0,0,0,GPS_Atti,0,Hover,,,66.66667,Connected,,,,OK,15,10,0,0,,,,,,,,,,,,,,,,,,,,,,,,,,,,,,0.0,,0,0,0,0,49,54,53,50,946,943,943,947,940,940,940,940,0.0,0.1,0.0,0.0,1528.8,1527.6,1527.6,1530.0,4.37,6.01,2.92,1.5,0,0,0,0,0.0,0.0,0.0,0.0,0,0,0,GPS_Atti,OTHER,NONE,ALREADY,False,Connected,,P,True,False,False,NONE,0.0,0.0,0.0,,,,,0,False,1,0.0,0.0,,,,,,,,,,,,,,,,,,,,,,,,Firmware Date| Dec 24 2018
66783622,-30.476,,,16,-162.88316,-162.77115,-0.014344143,-0.03625056,-0.9852283,0.98599935,0.56108856,-0.066448085,-0.6858947,0.8886435,429,-429,1386,1512.0,0.0074497797,0.0045204423,0.22937761,0.22954307,0.008713989790192136,0.07949236003012981,2.0612068427271675,-0.7941785270947137,49.53491576287699,2.208666023198483,118.47041289870256,49.534915762877006,-2.491342313990077,1.6253710232977348,-3.5032726117380486,49.41464853380998,,0.0,,,29.37,0,2,,,,3.4889219,50.7865458,20200206,125226,2020-02-06T12:52:26Z,10.151,0.67,1.49,14.1,9,7,16,0.0,0.01,-0.01,0,0,0,0,2,0,GPS_Atti,0,0,0,0,GPS_Atti,0,Hover,,,61.904762,Connected,,,,OK,15,10,0,0,,,,,,,,,,,,,,,,,,,,,,,,,,,,,,0.0,,0,0,0,0,50,54,54,49,946,943,942,946,940,940,940,940,0.0,0.1,0.0,0.0,1528.8,1527.0,1527.0,1528.8,4.37,6.01,2.92,1.5,0,0,0,0,0.0,0.0,0.0,0.0,0,0,0,GPS_Atti,OTHER,NONE,ALREADY,False,Connected,,P,True,False,False,NONE,0.0,0.0,0.0,,,,,0,False,1,0.0,0.0,,,,,,,,,,,,,,,,,,,,,,,,ACType|UNKNOWN
71283847,-29.476,3.4889230063189163,50.78654593986156,16,-162.8303,-162.88406,-0.012463805,-0.03560243,-0.98394525,0.984668,0.67965305,-0.6016274,-0.15312286,0.9205055,445,-429,1386,1517.0,0.012226677,0.007088453,0.29249713,0.29283836,0.0141328618470243,0.0852600736159721,2.07107931612559,-0.7834930044760952,49.57994945096787,2.2140826885026135,118.86530754321426,49.57994945096789,-2.6982250681332327,1.8002823941391974,-3.8709916693806306,48.324866599762444,,0.0,,,29.6,0,5,,0.0,,3.4889228,50.7865458,20200206,125227,2020-02-06T12:52:27Z,10.213,0.67,1.49,13.06,9,7,16,0.0,0.01,-0.03,0,0,0,0,5,0,GPS_Atti,0,0,0,0,GPS_Atti,5,Hover,,,66.66667,Connected,,,,OK,15,10,0,0,,,,,,,,,,,,,,,,,,,,,,,,,,,,,,0.0,,0,0,0,0,49,55,54,49,946,943,943,946,940,940,940,940,0.0,0.1,0.0,0.0,1530.0,1527.0,1527.6,1530.0,4.37,6.01,2.92,1.5,0,0,0,0,0.0,0.0,0.0,0.0,0,0,0,GPS_Atti,OTHER,NONE,ALREADY,False,Connected,,P,True,False,False,NONE,0.0,0.0,0.0,,,,,0,False,1,0.0,0.0,,,,,,,,,,,,,,,,,,,,,,,,dateTime|2020-2-6 12:52:12 GMT
75783922,-28.476,3.4889233704014035,50.78654544321656,16,-162.5238,-162.84782,-0.014856825,-0.03576489,-0.98589814,0.98665845,0.4174999,0.0813526,-0.0820112,0.43318617,439,-433,1383,1514.0,-0.0017123637,-1.0879309E-4,0.19971508,0.19972245,0.0017158162065594178,0.05915035501403964,2.08517035096404,-0.7660082719167147,49.601496783347876,2.2211863086921473,119.43726582904314,49.6014967833479,-2.909290030582188,1.9903491368818609,-4.22909874668685,48.94603086688315,0.06703964179604313,0.0,,,30.0,0,5,,0.0,,3.4889233,50.7865455,20200206,125228,2020-02-06T12:52:28Z,10.241,0.67,1.49,12.36,9,7,16,0.0,0.0,-0.03,0,0,0,0,5,0,GPS_Atti,0,0,0,0,GPS_Atti,5,Hover,,,61.904762,Connected,3.488922884681988,50.78654596205598,45,OK,15,10,0,0,,,,,,,,,,,,,,,,,,,,,,,,,,,,,,0.0,,0,0,0,0,49,55,56,49,946,943,943,947,940,940,940,940,0.0,0.1,0.0,0.0,1529.4,1527.6,1526.4,1529.4,4.37,6.01,2.92,1.5,0,0,0,0,0.0,0.0,0.0,0.0,0,0,0,GPS_Atti,OTHER,NONE,ALREADY,False,Connected,,P,True,False,False,NONE,0.0,0.0,0.0,,,,,0,False,1,0.0,0.0,,,,,,,,,,,,,,,,,,,,,,,,BatterySN|843||
80284138,-27.476,3.4889237822482455,50.786545246938665,16,-162.46567,-162.69861,-0.01297772,-0.03542186,-0.98405594,0.98477876,0.41617274,-0.25719377,0.09427625,0.4982333,439,-433,1386,1516.0,-3.9804395E-4,0.0020701461,0.11554746,0.11556669,0.002108066390788588,0.034147198685048244,2.09772906613539,-0.7714898133999583,49.61030088241928,2.2348603462128045,119.42527378516697,49.61030088241927,-3.1112680228686287,2.1805664578511323,-4.586527956303922,48.98154516659394,0.10151030907469916,0.0,,,30.34,0,5,,0.0,,3.4889239,50.7865452,20200206,125229,2020-02-06T12:52:29Z,10.279,0.67,1.49,11.66,9,7,16,0.0,0.0,-0.02,0,0,0,0,5,0,GPS_Atti,0,0,0,0,GPS_Atti,5,Hover,,,61.904762,Connected,3.488922884681988,50.78654596205598,45,OK,15,10,0,0,,,,,,,,,,,,,,,,,,,,,,,,,,,,,,0.0,,0,0,0,0,49,55,55,49,945,943,944,948,940,940,940,940,0.0,0.1,0.0,0.0,1530.0,1527.0,1527.0,1530.0,4.37,6.01,2.92,1.5,0,0,0,0,0.0,0.0,0.0,0.0,0,0,0,GPS_Atti,OTHER,NONE,ALREADY,False,Connected,,P,True,False,False,NONE,0.0,0.0,0.0,,,,,0,False,1,0.0,0.0,,,,,,,,,,,,,,,,,,,,,,,,geoDeclination|0.75 degrees
84784247,-26.476,3.4889242815746018,50.78654507690664,16,-162.70877,-162.65425,-0.013300358,-0.035975646,-0.98383385,0.98458123,-0.2778412,-0.4740022,0.09088691,0.556897,436,-433,1386,1516.0,0.005868536,0.0053365068,0.1031496,0.103454135,0.007932088078522626,0.03193689331327504,2.089416958482913,-0.7859833648886427,49.61618815112524,2.232115249138385,119.00840369267874,49.61618815112524,-3.326047645689624,2.3686476177959186,-4.956319700564739,49.196589820826155,0.13903413335486345,0.0,,,30.5,0,5,,0.0,,3.4889244,50.7865452,20200206,125230,2020-02-06T12:52:30Z,10.299,0.67,1.49,11.09,9,7,16,-0.01,0.01,-0.02,0,0,0,0,5,0,GPS_Atti,0,0,0,0,GPS_Atti,5,Hover,,,57.14286,Connected,3.488922884681988,50.78654596205598,45,OK,15,10,0,0,,,,,,,,,,,,,,,,,,,,,,,,,,,,,,0.0,,0,0,0,0,50,54,55,49,946,943,942,946,940,940,940,940,0.0,0.1,0.0,0.0,1528.2,1527.6,1526.4,1528.8,4.37,6.01,2.92,1.5,0,0,0,0,0.0,0.0,0.0,0.0,0,0,0,GPS_Atti,OTHER,NONE,ALREADY,False,Connected,,P,True,False,False,NONE,0.0,0.0,0.0,,,,,0,False,1,0.0,0.0,,,,,,,,,,,,,,,,,,,,,,,,geoInclination|66.02 degrees
89284444,-25.476,3.488924887686809,50.786545365567655,16,-162.5238,-162.6259,-0.01219314,-0.034662277,-0.98564184,0.9863265,-0.084363334,0.94016945,-0.4706338,1.0547663,445,-433,1383,1515.0,-0.0022400566,0.0040724576,0.05448563,0.054683514,0.0046478773444352485,0.04869560359204678,2.104670476743506,-0.7654700259653789,49.65046260186463,2.2393143518483405,119.67128716776192,49.65046260186466,-3.509659718666203,2.558428748823222,-5.3171177013953494,48.570184648216404,0.15564788582774544,0.0,,,30.79,0,5,,0.0,,3.488925,50.7865454,20200206,125231,2020-02-06T12:52:31Z,10.401,0.67,1.49,10.61,9,7,16,0.01,0.0,-0.01,0,0,0,0,5,0,GPS_Atti,0,0,0,0,GPS_Atti,5,Hover,,,61.904762,Connected,3.488922884681988,50.78654596205598,45,OK,15,10,0,0,,,,,,,,,,,,,,,,,,,,,,,,,,,,,,0.0,,0,0,0,0,49,55,55,49,946,944,943,947,940,940,940,940,0.0,0.1,0.0,0.0,1530.0,1527.6,1527.6,1529.4,4.37,6.01,2.92,1.5,0,0,0,0,0.0,0.0,0.0,0.0,0,0,0,GPS_Atti,OTHER,NONE,ALREADY,False,Connected,,P,True,False,False,NONE,0.0,0.0,0.0,,,,,0,False,1,0.0,0.0,,,,,,,,,,,,,,,,,,,,,,,,geoIntensity|48671.77 nanoTesla
93785244,-24.476,3.488925595876587,50.786545642923926,16,-162.93073,-162.75064,-0.012674591,-0.035277013,-0.98546046,0.98617315,0.0890503,-0.5067111,0.08328505,0.5211742,442,-433,1386,1517.0,-0.003084225,0.0046741813,0.17589425,0.17598337,0.00560003697676101,0.052952943086169345,2.072385933003467,-0.7531158658041645,49.66797781027838,2.204762640608176,119.703531965602,49.66797781027839,-3.698835385543274,2.7305792034764083,-5.666627649445888,48.71480755964532,0.19386875941374201,0.0,,,31.11,0,5,,0.0,,3.4889254,50.7865454,20200206,125232,2020-02-06T12:52:32Z,10.52,0.67,1.49,10.22,9,7,16,0.0,0.01,-0.02,0,0,0,0,5,0,GPS_Atti,0,0,0,0,GPS_Atti,5,Hover,,,61.904762,Connected,3.488922884681988,50.78654596205598,45,OK,15,10,0,0,,,,,,,,,,,,,,,,,,,,,,,,,,,,,,0.0,,0,0,0,0,49,55,55,49,946,943,943,946,940,940,940,940,0.0,0.1,0.0,0.0,1530.0,1527.0,1526.4,1528.8,4.37,6.01,2.92,1.5,0,0,0,0,0.0,0.0,0.0,0.0,0,0,0,GPS_Atti,OTHER,NONE,ALREADY,False,Connected,,P,True,False,False,NONE,0.0,0.0,0.0,,,,,0,False,1,0.0,0.0,0,0,3.4889062334255345,50.78655371156664,55.604633,,,0.0,0.0,0.0,-0.0,0,0,16,0.0,0.0,0,0,0,0,4,0,1,
98285274,-23.476,3.488925330810877,50.786544925338106,16,-162.64006,-162.83327,-0.013598516,-0.035410322,-0.9858629,0.98659235,0.2889972,0.04259202,-0.84857154,0.8974448,432,-433,1386,1514.0,-0.0026363204,0.0038709778,0.1805859,0.18064663,0.004683444757493787,0.07725479923185923,2.096875057596531,-0.7583688466551796,49.69123489800204,2.2295699130980595,119.8150024682007,49.69123489800205,-3.8729698342828116,2.919340992692547,-6.030250952431246,49.43444293102697,0.2070243539790154,0.0,,,31.41,0,5,0.1,0.0,,3.4889255,50.7865451,20200206,125233,2020-02-06T12:52:33Z,10.59,0.67,1.49,9.95,9,7,16,0.0,0.0,-0.02,0,0,0,0,5,0,GPS_Atti,0,0,0,0,GPS_Atti,5,Hover,,,52.380955,Connected,3.488922884681988,50.78654596205598,45,OK,15,10,0,0,,,,,,,,,,,,,,,,,,0.031999998,0.0,0.0,0.031999998,0.0,0.031999998,0.0019999999,0.0,0.90986395,0.0019999999,0.0,0.0019999999,-1.0,0.0,0,0,0,0,49,54,54,49,946,943,942,947,940,940,940,940,0.0,0.1,0.0,0.0,1529.4,1527.0,1526.4,1528.2,4.37,6.01,2.92,1.5,0,0,0,0,0.0,0.0,0.0,0.0,0,0,0,GPS_Atti,OTHER,NONE,ALREADY,False,Connected,,P,True,False,False,NONE,0.0,0.0,0.0,,,,,0,True,1,0.0,0.0,0,0,3.488906880288656,50.786534000422925,57.884377,3.4889071,50.786538,57.763,-0.009504261,-0.0019647465,7.322835E-4,0,23,23,0.5962075,0.0,16,16,0,0,4,0,6,
102785284,-22.476,3.488925652015991,50.78654445614547,16,-162.68234,-162.69592,-0.013107432,-0.034727488,-0.98616123,0.98685956,0.31093326,-0.31088233,0.58802474,0.7342346,439,-433,1386,1516.0,0.0050011985,0.010758959,0.05708546,0.058305375,0.011864534576210718,0.044984004022153926,2.098219409259589,-0.772121980329532,49.71519587440135,2.235538369556046,119.51930666868331,49.71519587440133,-4.043677633276216,3.112151111793536,-6.3816541609710775,48.98325264300265,0.2566810481299795,0.0,,,31.7,0,5,0.1,0.0,,3.4889257,50.7865446,20200206,125234,2020-02-06T12:52:34Z,10.619,0.67,1.49,9.69,9,7,16,0.0,0.01,-0.02,0,0,0,0,5,0,GPS_Atti,0,0,0,0,GPS_Atti,5,Hover,,,66.66667,Connected,3.488922884681988,50.78654596205598,45,OK,15,10,0,0,,,,,,,,,,,3,-0.03,0.03,,-5.22372E-4,3.0018017E-4,,0.032566827,0.0,0.0,0.03256682,0.0,0.03256682,0.0020354267,0.0,0.909851,0.0020354262,0.0,0.0020354262,,1000000.0,0,0,0,0,50,55,55,50,946,943,942,946,940,940,940,940,0.0,0.1,0.0,0.0,1528.8,1527.0,1527.0,1528.2,4.37,6.01,2.92,1.5,0,0,0,0,0.0,0.0,0.0,0.0,0,0,0,GPS_Atti,OTHER,NONE,ALREADY,False,Connected,,P,True,False,False,NONE,0.0,0.0,0.0,,,,,0,True,1,0.0,0.0,0,0,3.4889101731454955,50.786534510897745,58.23209,3.488908,50.7865364,57.892,-8.483044E-4,-0.0033268393,3.8914382E-4,0,23,23,0.5962075,0.0,16,16,0,0,4,0,10,
107286186,-21.475,3.4889261171576207,50.78654445935269,16,-162.50267,-162.71027,-0.012843826,-0.035572123,-0.9858651,0.98659027,-0.25719264,-0.28854486,-0.32594806,0.5056168,442,-433,1383,1515.0,-0.0048431233,0.008740638,0.042754438,0.04390668,0.009992727456144457,0.02270150943595952,2.1149290508589313,-0.7587336687853816,49.71560728158594,2.2466767926903293,119.98729801992775,49.71560728158596,-4.214598788095376,3.3161337609698784,-6.733498004864771,48.77410901657304,0.28205944583668796,0.0,,,31.95,0,5,0.1,0.0,,3.4889262,50.7865445,20200206,125235,2020-02-06T12:52:35Z,10.664,0.67,1.49,9.45,9,7,16,0.0,0.0,-0.02,0,0,0,0,5,0,GPS_Atti,0,0,0,0,GPS_Atti,5,Hover,,,61.904762,Connected,3.488922884681988,50.78654596205598,45,OK,15,10,0,0,,,,,,,,,,,3,-0.01,0.01,0.24,-5.223387E-4,2.9941573E-4,4.80327E-5,0.0017063636,0.0,0.0,0.0017063603,0.0,0.0017063606,1.0664773E-4,0.0,0.909918,1.06647516E-4,0.0,1.0664754E-4,,1000000.0,0,0,0,0,49,55,54,49,946,943,943,946,940,940,940,940,0.0,0.1,0.0,0.0,1529.4,1526.4,1527.0,1528.2,4.37,6.01,2.92,1.5,0,0,0,0,0.0,0.0,0.0,0.0,0,0,0,GPS_Atti,OTHER,NONE,ALREADY,False,Connected,,P,True,False,False,NONE,0.0,0.0,0.0,,,,,0,True,1,0.0,0.0,0,0,3.488914940850741,50.786533703882476,59.01415,3.4889116,50.7865371,58.172,-0.0036177111,-3.0306552E-4,-0.0042680274,0,24,23,0.57790124,0.0,16,16,0,0,4,0,15,
111786256,-20.475,3.4889266856175696,50.78654407628842,16,-162.52908,-162.6934,-0.01341486,-0.035852972,-0.9859833,0.9867261,0.80541974,-0.058756214,-0.17617206,0.826553,439,-433,1386,1516.0,-0.005866694,0.0047104256,0.044356085,0.04498965,0.0075237094875261895,0.05088152727529915,2.1402522301139992,-0.7509859429961643,49.70986569930468,2.267953046264421,120.38187675230533,49.70986569930466,-4.3891564316339045,3.5435078173390315,-7.078913403201502,49.00761608881466,0.3396545626177029,0.0,,,32.35,0,5,0.1,0.0,,3.4889267,50.7865443,20200206,125236,2020-02-06T12:52:36Z,10.703,0.66,1.49,9.24,9,7,16,-0.01,0.0,-0.02,0,0,0,0,5,0,GPS_Atti,0,0,0,0,GPS_Atti,5,Hover,,,61.904762,Connected,3.488922884681988,50.78654596205598,45,OK,15,10,0,0,,,,,,,,,,,3,-0.01,0.01,0.2,-5.2296015E-4,2.9957498E-4,4.3197335E-5,0.0016989296,0.0,0.0,0.0016989287,0.0,0.0016989296,1.061831E-4,0.0,0.9099309,1.0618304E-4,0.0,1.061831E-4,,1000000.0,0,0,0,0,49,55,54,49,946,943,943,946,940,940,940,940,0.0,0.1,0.0,0.0,1529.4,1526.4,1526.4,1528.8,4.37,6.01,2.92,1.5,0,0,0,0,0.0,0.0,0.0,0.0,0,0,0,GPS_Atti,OTHER,NONE,ALREADY,False,Connected,,P,True,False,False,NONE,0.0,0.0,0.0,,,,,0,True,1,0.0,0.0,0,0,3.4889226898064156,50.786540582081926,59.68756,3.4889165,50.786539,58.444,3.5671022E-4,0.00431915,-0.010950191,0,24,24,0.56693894,0.0,16,16,0,0,4,0,20,
116286319,-19.475,3.4889269657437594,50.78654407512479,16,-163.0417,-162.70847,-0.01356657,-0.036239546,-0.98602027,0.9867793,0.25356615,-1.0287527,0.4733961,1.1604877,439,-433,1386,1516.0,-0.005899098,0.009929279,0.04541924,0.046864666,0.011549455710725572,0.008143197012161141,2.1337842610624955,-0.7415316024083174,49.708334107210064,2.2587359984973854,120.55222164573759,49.70833410721008,-4.563222183138661,3.7580535952859884,-7.429526491750593,48.98333472549336,0.3554307247722416,0.0,,,32.58,0,5,0.1,0.0,,3.488927,50.7865442,20200206,125237,2020-02-06T12:52:37Z,10.728,0.66,1.49,9.08,9,7,16,0.0,0.0,-0.02,0,0,0,0,5,0,GPS_Atti,0,0,0,0,GPS_Atti,5,Hover,,,61.904762,Connected,3.488922884681988,50.78654596205598,45,OK,15,10,0,0,,,,,,,,,,,3,0.0,0.02,0.18,-5.2152714E-4,3.004718E-4,4.0849038E-5,0.0016298584,0.0,0.0,0.0016298579,0.0,0.001629857,1.0186615E-4,0.0,0.909891,1.0186612E-4,0.0,1.0186606E-4,,1000000.0,0,0,0,0,50,54,54,50,946,943,943,946,940,940,940,940,0.0,0.1,0.0,0.0,1528.8,1525.8,1525.2,1528.8,4.37,6.01,2.92,1.5,0,0,0,0,0.0,0.0,0.0,0.0,0,0,0,GPS_Atti,OTHER,NONE,ALREADY,False,Connected,,P,True,False,False,NONE,0.0,0.0,0.0,,,,,0,True,1,0.0,0.0,0,0,3.4889269783794266,50.78653651250831,60.2956,3.48892,50.7865383,59.087,0.0025767596,0.0017930244,-0.0034539516,0,24,24,0.56693894,0.0,16,16,0,0,4,0,25,
120786341,-18.475,3.4889271830808983,50.78654394202025,16,-162.90958,-162.71681,-0.013390583,-0.03515873,-0.98457086,0.9852894,-0.017269412,0.1072987,-0.38931194,0.40419677,442,-433,1383,1515.0,-0.005152195,0.009077627,0.04225593,0.043525994,0.010437836391371537,0.010833855129638673,2.126274603176977,-0.7550400694047552,49.71754559470592,2.256121264115503,120.1748458708679,49.71754559470594,-4.721652362791001,3.9603066384689405,-7.799591786900702,48.78397568366549,0.3765115071161918,0.0,,,32.84,0,5,0.1,0.0,,3.4889272,50.7865441,20200206,125238,2020-02-06T12:52:38Z,10.745,0.66,1.49,8.95,9,7,16,0.0,0.0,-0.02,0,0,0,0,5,0,GPS_Atti,0,0,0,0,GPS_Atti,5,Hover,,,66.66667,Connected,3.488922884681988,50.78654596205598,45,OK,15,10,0,0,,,,,,,,,,,3,0.0,0.0,0.15,-5.230653E-4,2.9697313E-4,3.8367685E-5,0.0016259796,0.0,0.0,0.0016259805,0.0,0.0016259786,1.0162372E-4,0.0,0.9098589,1.0162378E-4,0.0,1.01623664E-4,,1000000.0,0,0,0,0,50,56,56,50,946,943,943,947,940,940,940,940,0.0,0.1,0.0,0.0,1528.2,1525.8,1527.6,1528.8,4.37,6.01,2.92,1.5,0,0,0,0,0.0,0.0,0.0,0.0,0,0,0,GPS_Atti,OTHER,NONE,ALREADY,False,Connected,,P,True,False,False,NONE,0.0,0.0,0.0,,,,,0,True,1,0.0,0.0,0,0,3.4889283508088975,50.78653728965988,60.4778,3.4889231,50.7865377,59.623,-0.0039870613,9.961587E-4,0.003768614,0,24,24,0.56693894,0.0,16,16,0,0,4,0,30,
125287219,-17.475,3.48892748397882,50.786543849665605,16,-162.43925,-162.67966,-0.013132293,-0.03677248,-0.9855899,0.9863631,-0.23048447,-0.2635462,-0.5387455,0.6425157,436,-433,1386,1516.0,-0.0018463267,-0.001195525,0.026488151,0.026579322,0.0021995914587107706,0.021309602380572102,2.1105143521835936,-0.7619131437976903,49.73652437537793,2.243598231811413,119.89372191706632,49.73652437537794,-4.864129823602332,4.159472422005867,-8.173635881665463,49.18676461907576,0.3996382033251102,0.0,,,33.2,0,5,0.1,0.0,,3.4889275,50.7865441,20200206,125239,2020-02-06T12:52:39Z,10.819,0.66,1.49,8.79,9,7,16,0.0,0.0,-0.01,0,0,0,0,5,0,GPS_Atti,0,0,0,0,GPS_Atti,5,Hover,,,66.66667,Connected,3.488922884681988,50.78654596205598,45,OK,15,10,0,0,,,,,,,,,,,3,0.0,0.0,0.12,-5.2196364E-4,2.955647E-4,3.485285E-5,0.0016230731,0.0,0.0,0.0016230734,0.0,0.0016230737,1.0144207E-4,0.0,0.9098104,1.01442085E-4,0.0,1.0144211E-4,,1000000.0,0,0,0,0,49,55,55,49,946,943,943,947,940,940,940,940,0.0,0.1,0.0,0.0,1528.8,1525.8,1525.8,1528.8,4.37,6.01,2.92,1.5,0,0,0,0,0.0,0.0,0.0,0.0,0,0,0,GPS_Atti,OTHER,NONE,ALREADY,False,Connected,,P,True,False,False,NONE,0.0,0.0,0.0,,,,,0,True,1,0.0,0.0,0,0,3.4889278465843154,50.78653628950719,60.28474,3.488925,50.7865374,59.892,-0.0025981474,-0.0028665299,-0.0029656098,0,24,24,0.56693894,0.0,16,16,0,0,4,0,34,
129787473,-16.475,3.4889279579107053,50.78654402869755,16,-162.69292,-162.6777,-0.012681,-0.03507639,-0.98456305,0.9852693,0.4798718,-0.2008013,-0.5347613,0.7460347,442,-433,1386,1517.0,-7.1122835E-4,0.0060644317,0.030691478,0.03129297,0.006105995270572338,0.032703085599318116,2.124554448164369,-0.7753712581077965,49.744373285016806,2.2613780866245152,119.70179188094168,49.74437328501682,-5.007855095280859,4.365192913216439,-8.542442332552938,48.82344869861424,0.4164243916885843,0.0,,,33.46,0,5,0.1,0.0,,3.4889281,50.7865442,20200206,125240,2020-02-06T12:52:40Z,10.968,0.66,1.49,8.62,9,7,16,0.0,0.0,-0.02,0,0,0,0,5,0,GPS_Atti,0,0,0,0,GPS_Atti,5,Hover,,,61.904762,Connected,3.488922884681988,50.78654596205598,45,OK,15,10,0,0,,,,,,,,,,,3,0.0,0.01,0.12,-5.210748E-4,2.9809042E-4,3.3996406E-5,0.0016209682,0.0,0.0,0.0016209689,0.0,0.0016209689,1.01310514E-4,0.0,0.90981823,1.0131056E-4,0.0,1.0131056E-4,,1000000.0,0,0,0,0,50,55,56,50,946,943,942,947,940,940,940,940,0.0,0.1,0.0,0.0,1527.6,1525.8,1525.2,1528.2,4.37,6.01,2.92,1.5,0,0,0,0,0.0,0.0,0.0,0.0,0,0,0,GPS_Atti,OTHER,NONE,ALREADY,False,Connected,,P,True,False,False,NONE,0.0,0.0,0.0,,,,,0,True,1,0.0,0.0,0,0,3.4889274308065055,50.786535810532506,60.021267,3.4889261,50.7865367,59.991,-0.0035032714,0.002499639,-0.0014609839,0,24,24,0.56693894,0.0,16,16,0,0,4,0,39,
134287830,-15.475,3.488928812992774,50.78654435592818,16,-162.66649,-162.67021,-0.012626177,-0.035965186,-0.984755,0.9854924,0.58036673,-0.54719967,-0.14220007,0.81023073,432,-433,1383,1512.0,-5.212402E-4,0.0010217389,0.016991798,0.017030468,0.0011470142159774777,0.06911347066205988,2.1252352773105176,-0.7581930348199979,49.74465818611921,2.2561976647241586,120.1176913431037,49.74465818611918,-5.156984824798159,4.579528000316598,-8.902405857077078,49.46436820766695,0.453407280744761,0.0,,,33.7,0,5,0.1,0.0,,3.4889288,50.7865444,20200206,125241,2020-02-06T12:52:41Z,11.135,0.66,1.49,8.47,9,7,16,0.0,0.0,-0.02,0,0,0,0,5,0,GPS_Atti,0,0,0,0,GPS_Atti,5,Hover,,,66.66667,Connected,3.488922884681988,50.78654596205598,45,OK,15,10,0,0,,,,,,,,,,,3,0.0,0.0,0.09,-5.22327E-4,2.9691405E-4,3.199585E-5,0.0016190528,0.0,0.0,0.0016190531,0.0,0.0016190526,1.011908E-4,0.0,0.9098113,1.0119082E-4,0.0,1.0119079E-4,,1000000.0,0,0,0,0,50,54,55,50,946,943,942,947,940,940,940,940,0.0,0.1,0.0,0.0,1529.4,1526.4,1525.8,1528.8,4.37,6.01,2.92,1.5,0,0,0,0,0.0,0.0,0.0,0.0,0,0,0,GPS_Atti,OTHER,NONE,ALREADY,False,Connected,,P,True,False,False,NONE,0.0,0.0,0.0,,,,,0,True,1,0.0,0.0,0,0,3.488926729072754,50.78653616704966,59.925884,3.4889265,50.7865364,59.983,-0.0066190837,8.571387E-4,0.0021296444,0,24,24,0.56693894,0.0,16,16,0,0,4,0,44,
138789969,-14.475,3.488929555891739,50.78654447238686,16,-162.40755,-162.66713,-0.012986903,-0.036574464,-0.9846828,0.98544735,0.5383444,-0.34398428,0.4566388,0.7852763,432,-433,1383,1512.0,0.0012187334,0.00881354,0.025420036,0.026932176,0.008897404596297731,0.04488339264608058,2.127982342124424,-0.7694944914523772,49.74842019283552,2.262596386808319,119.87537166033765,49.74842019283551,-5.299547100150383,4.787826652464364,-9.268951995018277,49.48668060857004,0.49737058883610585,0.0,,,33.98,0,5,0.1,0.0,,3.4889295,50.7865446,20200206,125242,2020-02-06T12:52:42Z,11.288,0.66,1.49,8.32,9,7,16,0.01,0.0,-0.02,0,0,0,0,5,0,GPS_Atti,0,0,0,0,GPS_Atti,5,Hover,,,52.380955,Connected,3.488922884681988,50.78654596205598,45,OK,15,10,0,0,,,,,,,,,,,3,0.0,0.0,0.08,-5.222637E-4,2.9711815E-4,3.116993E-5,0.001619316,0.0,0.0,0.0016193148,0.0,0.0016193152,1.0120725E-4,0.0,0.9098277,1.0120717E-4,0.0,1.012072E-4,,1000000.0,0,0,0,0,50,55,54,49,946,943,942,946,940,940,940,940,0.0,0.1,0.0,0.0,1528.2,1526.4,1524.5,1528.2,4.37,6.01,2.92,1.5,0,0,0,0,0.0,0.0,0.0,0.0,0,0,0,GPS_Atti,OTHER,NONE,ALREADY,False,Connected,,P,True,False,False,NONE,3.488925733017269,50.786540219041115,18.959356,,,,,0,True,1,0.0,0.0,0,0,3.488917251151242,50.78653902570892,55.93448,3.4889266,50.7865363,59.928,0.0025878868,0.0036202276,-0.0070255683,0,24,26,0.56693894,0.0,16,50,0,24,4,0,49,
143290644,-13.474,3.488930061506317,50.786544810603736,16,-162.95714,-162.68884,-0.012069978,-0.035590958,-0.9856069,0.9863232,0.44821015,-0.002847442,-0.16609816,0.4780053,432,-429,1386,1513.0,-0.005448523,0.0059959367,0.028534584,0.029662436,0.008101707093341546,0.04363742126174938,2.161343456064078,-0.7549039602823041,49.76675708143323,2.2891494299020185,120.5211379677207,49.76675708143324,-5.418267653955585,5.006923167720904,-9.623761889885513,49.2841224800174,0.5205140560114075,0.0,,,34.27,0,5,0.1,0.0,,3.48893,50.7865448,20200206,125243,2020-02-06T12:52:43Z,11.39,0.66,1.49,8.21,9,7,16,-0.01,0.01,-0.01,0,0,0,0,5,0,GPS_Atti,0,0,0,0,GPS_Atti,5,Hover,,,85.71429,Connected,3.488922884681988,50.78654596205598,45,OK,15,10,0,0,,,,,,,,,,,3,0.0,0.01,0.09,-5.214421E-4,2.971425E-4,3.2567033E-5,0.001630249,0.0,0.0,0.0016302492,0.0,0.0016302499,1.0189056E-4,0.0,0.9097479,1.01890575E-4,0.0,1.0189062E-4,,1000000.0,0,0,0,0,50,55,54,49,946,943,942,946,940,940,940,940,0.0,0.1,0.0,0.0,1528.2,1525.2,1525.8,1528.2,4.37,6.01,2.92,1.5,0,0,0,0,0.0,0.0,0.0,0.0,0,0,0,GPS_Atti,OTHER,NONE,ALREADY,False,Connected,,P,True,False,False,NONE,3.488917482494232,50.786538801083125,-58.40667,,,,,0,True,1,0.0,0.0,0,0,3.488917223046139,50.786539011693755,55.93299,3.4889267,50.7865363,59.805,-0.0055929273,-0.001402925,-0.0037041346,0,24,26,0.56693894,0.0,16,50,0,24,4,0,54,
147791245,-12.474,3.48893051182503,50.78654533817113,16,-163.45918,-162.6849,-0.012693189,-0.035641268,-0.984751,0.9854775,-0.30665934,-0.92394614,-0.38528976,1.0469788,442,-433,1383,1515.0,-0.0033588335,0.007703951,0.017748035,0.019637346,0.008404321778484596,0.05824620937354217,2.144342586495566,-0.7517613410655056,49.769878325782656,2.2720685694110445,120.45761378900099,49.769878325782656,-5.54852564099795,5.2224609035829195,-9.980140694906732,48.80384428274487,0.5406473617304958,0.0,,,34.56,0,5,0.1,0.0,,3.4889304,50.7865452,20200206,125244,2020-02-06T12:52:44Z,11.496,0.66,1.49,8.08,9,7,16,0.01,0.0,-0.01,0,0,0,0,5,0,GPS_Atti,0,0,0,0,GPS_Atti,5,Hover,,,95.2381,Connected,3.488922884681988,50.78654596205598,45,OK,15,10,0,0,,,,,,,,,,,3,0.0,0.01,0.08,-5.212086E-4,2.9883138E-4,3.1919255E-5,0.0016153238,0.0,0.0,0.0016153232,0.0,0.0016153248,1.0095774E-4,0.0,0.9097674,1.009577E-4,0.0,1.009578E-4,,1000000.0,0,0,0,0,50,55,54,49,946,943,943,947,940,940,940,940,0.0,0.1,0.0,0.0,1528.2,1525.8,1524.5,1527.6,4.37,6.01,2.92,1.5,0,0,0,0,0.0,0.0,0.0,0.0,0,0,0,GPS_Atti,OTHER,NONE,ALREADY,False,Connected,,P,True,False,False,NONE,3.4889171791121107,50.78653896554544,-55.94419,,,,,0,True,1,0.0,0.0,0,0,3.4889172044683607,50.786539023374,55.932247,3.4889267,50.7865363,59.663,4.2874442E-4,-0.0010663025,0.003409643,0,24,26,0.56693894,0.0,16,50,0,22,4,0,58,
152291341,-11.474,3.488930935767048,50.78654572741915,16,-162.8356,-162.68015,-0.013038611,-0.036365073,-0.9862609,0.9870172,0.65047544,-0.62594754,-0.09432003,0.907648,436,-433,1383,1513.0,-0.0053555,0.00925882,0.012491602,0.016445281,0.010696126455200131,0.04185329625592486,2.1573723003309873,-0.7612184142559268,49.78762242685661,2.2874908057800845,120.35991887109279,49.787622426856615,-5.667402880954027,5.448803170964377,-10.357062112703819,49.24148191831464,0.08862594268695759,0.0,,,34.9,0,5,0.1,0.0,,3.4889308,50.7865456,20200206,125245,2020-02-06T12:52:45Z,11.598,0.66,1.49,7.97,9,7,16,0.01,0.0,-0.01,0,0,0,0,5,0,GPS_Atti,0,0,0,0,GPS_Atti,5,Hover,,,95.2381,Connected,3.4889304326940986,50.78654499659385,45,OK,15,10,0,0,,,,,,,,,,,3,-0.01,0.01,0.07,-5.2456727E-4,2.9537675E-4,3.0183619E-5,0.001614179,0.0,0.0,0.0016141799,0.0,0.0016141805,1.0088619E-4,0.0,0.9096167,1.00886245E-4,0.0,1.0088628E-4,,1000000.0,0,0,0,0,49,54,55,50,946,943,943,947,940,940,940,940,0.0,0.1,0.0,0.0,1528.8,1525.2,1525.8,1527.6,4.37,6.01,2.92,1.5,0,0,0,0,0.0,0.0,0.0,0.0,0,0,0,GPS_Atti,OTHER,NONE,ALREADY,False,Connected,,P,True,False,False,NONE,3.4889172078612174,50.78653899217863,-55.917953,,,,,0,True,1,0.0,0.0,0,0,3.488917218458308,50.78653904622879,55.935825,3.4889266,50.7865364,59.471,-0.0036744557,-0.0013247819,-0.014149761,0,24,26,0.56693894,0.0,16,50,0,22,4,0,63,
156791461,-10.474,3.4889313204319796,50.7865458795986,16,-162.71405,-162.67755,-0.012764005,-0.035263274,-0.98498243,0.98569614,0.076446265,-0.19468027,-0.7513275,0.77989584,439,-433,1386,1516.0,-0.0103907045,0.013049735,0.012134651,0.020627944,0.016681196152357903,0.015217472484652769,2.1673571477322295,-0.7527822152395326,49.80390625195669,2.2941311512281537,120.65784826764761,49.803906251956676,-5.7844334692059745,5.677431086426446,-10.726811179169381,49.048203176404954,0.11634015190214796,0.0,,,35.18,0,5,0.1,0.0,,3.4889312,50.7865459,20200206,125246,2020-02-06T12:52:46Z,11.694,0.66,1.49,7.86,9,7,16,0.0,0.0,0.0,0,0,0,0,5,0,GPS_Atti,0,0,0,0,GPS_Atti,5,Hover,,,95.2381,Connected,3.4889304326940986,50.78654499659385,45,OK,15,10,0,0,,,,,,,,,,,3,-0.01,0.02,0.07,-5.2475295E-4,2.9632804E-4,2.9292714E-5,0.0016135088,0.0,0.0,0.0016135091,0.0,0.0016135115,1.008443E-4,0.0,0.90955514,1.0084432E-4,0.0,1.0084447E-4,,1000000.0,0,0,0,0,51,55,55,51,946,943,942,947,940,940,940,940,0.0,0.1,0.0,0.0,1527.6,1526.4,1524.5,1528.2,4.37,6.01,2.92,1.5,0,0,0,0,0.0,0.0,0.0,0.0,0,0,0,GPS_Atti,OTHER,NONE,ALREADY,False,Connected,,P,True,False,False,NONE,3.4889172032055016,50.78653899657894,-55.930466,,,,,0,True,1,0.0,0.0,0,0,3.4889171999257806,50.78653903340085,55.936443,3.4889266,50.7865366,59.305,-0.006860791,0.001234184,0.0076238923,0,24,26,0.56693894,0.0,16,50,0,22,4,0,68,
161292140,-9.474,3.488931437409538,50.78654612604996,16,-162.98885,-162.6796,-0.012730264,-0.035041094,-0.9859045,0.98660916,0.40229592,-0.053263415,-0.48074216,0.62912005,436,-433,1380,1510.0,-0.0061156233,0.011951264,0.008078189,0.015668143,0.013425109346600884,0.015181948323664807,2.1693883612597875,-0.74603313560564,49.83389081079562,2.2938500966042494,120.86368400217627,49.83389081079565,-5.89003794865175,5.9083880188991245,-11.091295438162357,49.224211277959704,0.14408822532871746,0.0,,,35.47,0,5,0.1,0.0,,3.4889314,50.7865461,20200206,125247,2020-02-06T12:52:47Z,11.751,0.66,1.49,7.8,9,7,16,0.01,0.0,0.0,0,0,0,0,5,0,GPS_Atti,0,0,0,0,GPS_Atti,5,Hover,,,90.47619,Connected,3.4889304326940986,50.78654499659385,45,OK,15,10,0,0,,,,,,,,,,,3,0.0,0.01,0.05,-5.241733E-4,2.938683E-4,2.8943776E-5,0.0016127186,0.0,0.0,0.0016127204,0.0,0.0016127216,1.0079491E-4,0.0,0.90945756,1.0079503E-4,0.0,1.007951E-4,,1000000.0,0,0,0,0,50,56,55,49,946,943,943,947,940,940,940,940,0.0,0.1,0.0,0.0,1528.8,1525.2,1525.2,1528.2,4.37,6.01,2.92,1.5,0,0,0,0,0.0,0.0,0.0,0.0,0,0,0,GPS_Atti,OTHER,NONE,ALREADY,False,Connected,,P,True,False,False,NONE,3.4889173102532784,50.78653896863654,-55.925495,,,,,0,True,1,0.0,0.0,0,0,3.488917227246903,50.78653906086269,55.930904,3.4889266,50.7865366,59.124,-0.004573985,-8.673028E-5,0.012413247,0,24,26,0.56693894,0.0,16,50,0,22,4,0,73,
165792475,-8.474,3.4889316158164063,50.78654624019584,16,-162.51323,-162.67856,-0.012265646,-0.036044743,-0.98543745,0.98617274,-0.5329082,-0.6540743,0.42577177,0.94503224,436,-433,1383,1513.0,-0.0117529165,0.013770241,0.011167305,0.02127109,0.01810388286521408,-2.616111904630014E-4,2.1650606450109624,-0.7629678332660118,49.859096090730816,2.2953213499075216,120.4541161221027,49.859096090730816,-5.994361364474167,6.147259591407251,-11.469725175063552,49.2549720403479,0.16136774086130998,0.0,,,35.72,0,5,0.1,0.0,,3.4889316,50.7865462,20200206,125247,2020-02-06T12:52:47Z,11.774,0.66,1.49,7.76,9,7,16,0.0,0.0,0.0,0,0,0,0,5,0,GPS_Atti,0,0,0,0,GPS_Atti,5,Hover,,,90.47619,Connected,3.4889304326940986,50.78654499659385,45,OK,15,10,0,0,,,,,,,,,,,3,-0.01,0.0,0.05,-5.255778E-4,2.9275156E-4,2.8331508E-5,0.0016113947,0.0,0.0,0.0016113957,0.0,0.0016113977,1.0071217E-4,0.0,0.9094051,1.00712234E-4,0.0,1.0071236E-4,,1000000.0,0,0,0,0,50,55,55,48,946,943,942,946,940,940,940,940,0.0,0.1,0.0,0.0,1528.2,1526.4,1525.2,1527.0,4.37,6.01,2.92,1.5,0,0,0,0,0.0,0.0,0.0,0.0,0,0,0,GPS_Atti,OTHER,NONE,ALREADY,False,Connected,,P,True,False,False,NONE,3.488917265046698,50.786538974649716,-55.924,,,,,0,True,1,0.0,0.0,0,0,3.4889172276069154,50.786539045966734,55.931683,3.4889264,50.7865366,58.971,0.0023820328,0.0016012016,-0.0028179316,0,24,26,0.56693894,0.0,16,50,0,22,4,0,78,
170293037,-7.474,3.488931836924487,50.786546531147586,16,-162.55023,-162.67569,-0.011869729,-0.034509312,-0.98681486,0.98748946,0.20334888,-0.27667913,-0.93580574,0.99681216,436,-433,1383,1513.0,-0.003935309,0.013900624,0.00552282,0.015466594,0.014446937458453128,0.021441181504333613,2.160002656997589,-0.7720976885264595,49.87909060130256,2.2936036136764377,120.21705491782784,49.87909060130255,-6.0946294900418785,6.375368071892083,-11.854063369060949,49.26278995232719,0.19713174076500692,0.0,,,36.01,0,5,0.1,0.0,,3.4889319,50.7865465,20200206,125248,2020-02-06T12:52:48Z,11.809,0.66,1.49,7.72,9,7,16,0.0,0.0,-0.01,0,0,0,0,5,0,GPS_Atti,0,0,0,0,GPS_Atti,5,Hover,,,95.2381,Connected,3.4889304326940986,50.78654499659385,45,OK,15,10,0,0,,,,,,,,,,,3,0.0,0.01,0.04,-5.261658E-4,2.8967662E-4,2.5157948E-5,0.0016115047,0.0,0.0,0.0016115064,0.0,0.0016115074,1.00719044E-4,0.0,0.9093246,1.0071915E-4,0.0,1.0071921E-4,,1000000.0,0,0,0,0,51,56,55,50,946,943,942,947,940,940,940,940,0.0,0.1,0.0,0.0,1527.6,1525.8,1524.5,1528.2,4.37,6.01,2.92,1.5,0,0,0,0,0.0,0.0,0.0,0.0,0,0,0,GPS_Atti,OTHER,NONE,ALREADY,False,Connected,,P,True,False,False,NONE,3.488917281780821,50.78653900159635,-55.92954,,,,,0,True,1,0.0,0.0,0,0,3.4889172497077894,50.78653905853477,55.93044,3.4889262,50.7865366,58.867,-0.0015700333,0.008161678,0.0020386048,0,24,26,0.56693894,0.0,16,50,0,20,4,0,82,
174793424,-6.474,3.4889322144964052,50.786546718568154,16,-162.60307,-162.67264,-0.012097652,-0.034567114,-0.987554,0.98823285,-0.44153556,-0.5899349,0.25374204,0.77933425,439,-433,1386,1516.0,-0.0058669895,0.0088536795,2.1342371E-4,0.010623312,0.010621167753040887,0.02312256448929917,2.138110238700627,-0.7583082474485882,49.888851813118485,2.2683650300353153,120.36847344339328,49.88885181311849,-6.2004901512375135,6.598582521481183,-12.226143010040706,49.01647371800937,0.22880615842871793,0.0,,,36.29,0,5,0.1,0.0,,3.4889321,50.7865467,20200206,125249,2020-02-06T12:52:49Z,11.822,0.66,1.49,7.69,9,7,16,0.01,0.0,0.0,0,0,0,0,5,0,GPS_Atti,0,0,0,0,GPS_Atti,5,Hover,,,95.2381,Connected,3.4889304326940986,50.78654499659385,45,OK,15,10,0,0,,,,,,,,,,,3,0.0,0.01,0.04,-5.2444846E-4,2.9189378E-4,2.665215E-5,0.0016110693,0.0,0.0,0.0016110708,0.0,0.0016110702,1.0069183E-4,0.0,0.9093145,1.0069193E-4,0.0,1.0069189E-4,,1000000.0,0,0,0,0,50,55,54,49,946,943,942,946,940,940,940,940,0.0,0.1,0.0,0.0,1528.2,1524.5,1525.2,1527.6,4.37,6.01,2.92,1.5,0,0,0,0,0.0,0.0,0.0,0.0,0,0,0,GPS_Atti,OTHER,NONE,ALREADY,False,Connected,,P,True,False,False,NONE,3.488917334080985,50.78653899165989,-55.934097,,,,,0,True,1,0.0,0.0,0,0,3.488917269323167,50.78653907068355,55.93322,3.4889272,50.7865379,58.672,-7.911191E-4,-0.001985688,0.0067029065,0,25,26,0.5482611,0.0,16,50,0,20,4,0,87,
179293811,-5.474,3.4889322941405743,50.7865470166532,16,-162.9043,-162.67493,-0.01166654,-0.035952877,-0.9864374,0.9871613,-0.011708331,0.04081849,0.53872776,0.5403988,436,-433,1386,1516.0,-0.0015729439,0.01139269,-0.0027050273,0.011814597,0.01150076249613249,0.022111441604595206,2.1444223066144037,-0.7628238958665156,49.910302703943316,2.2758210213168115,120.33595614403153,49.91030270394333,-6.2911519272366565,6.832413090555306,-12.598793960065302,49.23540961447106,0.2599575336970653,0.0,,,36.58,0,5,0.1,0.0,,3.4889322,50.7865469,20200206,125250,2020-02-06T12:52:50Z,11.855,0.66,1.49,7.65,9,7,16,0.0,0.0,0.0,0,0,0,0,5,0,GPS_Atti,0,0,0,0,GPS_Atti,5,Hover,,,95.2381,Connected,3.4889304326940986,50.78654499659385,45,OK,15,10,0,0,,,,,,,,,,,3,0.0,0.0,0.03,-5.254815E-4,2.8896166E-4,2.4461156E-5,0.0016106511,0.0,0.0,0.001610651,0.0,0.0016106504,1.006657E-4,0.0,0.90922797,1.0066569E-4,0.0,1.0066565E-4,,1000000.0,0,0,0,0,50,55,56,50,946,943,943,947,940,940,940,940,0.0,0.1,0.0,0.0,1528.2,1525.2,1526.4,1527.6,4.37,6.01,2.92,1.5,0,0,0,0,0.0,0.0,0.0,0.0,0,0,0,GPS_Atti,OTHER,NONE,ALREADY,False,Connected,,P,True,False,False,NONE,3.488917268929261,50.786539003464505,-55.925484,,,,,0,True,1,0.0,0.0,0,0,3.488917219215388,50.78653905776624,55.926556,3.4889268,50.7865377,58.489,-0.0012965534,-5.150877E-4,0.010569608,0,25,26,0.54826325,0.0,16,50,0,20,4,0,92,
183794099,-4.474,3.488932224730671,50.78654708827767,16,-162.65063,-162.67552,-0.012284218,-0.0353771,-0.9856675,0.98637867,0.028345538,-0.36765218,0.6032384,0.70701355,439,-433,1386,1516.0,-0.0032037764,0.010714879,-0.0010842462,0.011236032,0.011183596189105907,-0.0018440390747910262,2.1418560965562663,-0.7552118698125397,49.96531338626665,2.270865608277493,120.55015075888284,49.965313386266644,-6.346506838362943,7.067097676975916,-12.968298604449318,49.016679167390144,0.2645109053443544,0.0,,,36.92,0,5,0.1,0.0,,3.4889322,50.786547,20200206,125251,2020-02-06T12:52:51Z,11.898,0.66,1.49,7.61,9,7,16,0.0,0.0,0.0,0,0,0,0,5,0,GPS_Atti,0,0,0,0,GPS_Atti,5,Hover,,,95.2381,Connected,3.4889304326940986,50.78654499659385,45,OK,15,10,0,0,,,,,,,,,,,3,0.0,0.0,0.02,-5.269228E-4,2.8417193E-4,2.3285318E-5,0.0016101438,0.0,0.0,0.0016101436,0.0,0.0016101417,1.0063399E-4,0.0,0.9090556,1.0063397E-4,0.0,1.0063386E-4,,1000000.0,0,0,0,0,48,56,55,48,947,943,943,947,940,940,940,940,0.0,0.1,0.0,0.0,1528.2,1525.2,1524.5,1527.0,4.37,6.01,2.92,1.5,0,0,0,0,0.0,0.0,0.0,0.0,0,0,0,GPS_Atti,OTHER,NONE,ALREADY,False,Connected,,P,True,False,False,NONE,3.488917286335336,50.78653897299045,-55.92281,,,,,0,True,1,0.0,0.0,0,0,3.4889172298143674,50.78653901856948,55.923626,3.4889259,50.7865369,58.349,7.295137E-4,-0.0048014666,0.004897154,0,25,26,0.5482654,0.0,16,50,0,20,4,0,97,
188294636,-3.474,3.488932379572643,50.78654695867663,16,-162.56079,-162.67339,-0.012014609,-0.03615153,-0.98605555,0.9867912,0.54958826,0.32236636,-0.7884684,1.0137306,436,-433,1386,1516.0,-0.007928258,0.010378428,-0.0074443147,0.0150328595,0.013060208169723315,0.004997636200325235,2.1401728653159044,-0.7469346495643069,50.002504387165644,2.2665423329016567,120.7704573370817,50.00250438716563,-6.3939776677359195,7.297379912964235,-13.339744469534091,49.203658727109826,0.25754848630027044,0.0,,,37.17,0,5,0.1,0.0,,3.4889324,50.786547,20200206,125252,2020-02-06T12:52:52Z,11.929,0.66,1.49,7.58,9,7,16,0.0,0.0,0.0,0,0,0,0,5,0,GPS_Atti,0,0,0,0,GPS_Atti,5,Hover,,,95.2381,Connected,3.4889304326940986,50.78654499659385,45,OK,15,10,0,0,,,,,,,,,,,3,0.0,-0.01,0.01,-5.2640005E-4,2.8416008E-4,2.3654728E-5,0.0016098121,0.0,0.0,0.0016098127,0.0,0.0016098092,1.0061326E-4,0.0,0.90898556,1.00613295E-4,0.0,1.0061308E-4,,1000000.0,0,0,0,0,50,55,56,50,946,943,943,947,940,940,940,940,0.0,0.1,0.0,0.0,1528.2,1524.5,1524.5,1528.2,4.37,6.01,2.92,1.5,0,0,0,0,0.0,0.0,0.0,0.0,0,0,0,GPS_Atti,OTHER,NONE,ALREADY,False,Connected,,P,True,False,False,NONE,3.4889172498966086,50.78653896454734,-55.93197,,,,,0,True,1,0.0,0.0,0,0,3.488917234894813,50.78653900889459,55.92825,3.4889255,50.7865365,58.267,-0.046887513,-0.014919635,0.0075175627,0,24,26,0.56691706,0.0,16,50,0,18,4,0,101,
192795122,-2.473,3.488932553744029,50.786547169687246,16,-162.84088,-162.67348,-0.011372524,-0.03607015,-0.9869875,0.98771185,-0.09670038,-0.17635703,-0.110307425,0.22939157,436,-433,1383,1513.0,-0.0018267253,0.008742417,-0.0058569084,0.0106803635,0.008931225503007983,0.017531798792119916,2.135888907958622,-0.7340275448242081,50.0090910184185,2.2582781670749634,121.05029961781258,50.00909101841853,-6.4619528636355525,7.533320977012671,-13.712496488381813,49.16757740886536,0.2839389444038264,0.0,,,37.47,0,5,0.1,0.0,,3.4889324,50.7865471,20200206,125253,2020-02-06T12:52:53Z,11.951,0.66,1.49,7.55,9,7,16,0.0,0.0,0.0,0,0,0,0,5,0,GPS_Atti,0,0,0,0,GPS_Atti,5,Hover,,,95.2381,Connected,3.4889304326940986,50.78654499659385,45,OK,15,10,0,0,,,,,,,,,,,3,0.0,-0.02,0.02,-5.281506E-4,2.824186E-4,2.340396E-5,0.0016078053,0.0,0.0,0.0016078056,0.0,0.0016078029,1.0048783E-4,0.0,0.90898746,1.0048785E-4,0.0,1.0048768E-4,,1000000.0,0,0,0,0,50,56,56,48,947,943,942,947,940,940,940,940,0.0,0.1,0.0,0.0,1528.2,1525.2,1525.2,1528.2,4.37,6.01,2.92,1.5,0,0,0,0,0.0,0.0,0.0,0.0,0,0,0,GPS_Atti,OTHER,NONE,ALREADY,False,Connected,,P,True,False,False,NONE,3.4889172601719016,50.78653900313907,-55.93507,,,,,0,True,1,0.0,0.0,0,0,3.4889172603126135,50.78653905238977,55.929543,3.4889253,50.7865359,58.193,0.004170991,0.0012041521,-0.019074991,0,24,26,0.56691706,0.0,16,50,0,18,4,0,106,
197302336,-1.472,3.4889323240201593,50.78654704063785,16,-162.98885,-162.67523,-0.012205086,-0.03585197,-0.98757124,0.98829716,0.44523188,-1.3852648,-0.309663,1.4876428,436,-436,1386,1516.0,-0.0072150715,0.009405602,-0.0031505062,0.012265736,0.011854223157628529,0.009714707376296636,2.1524574011467217,-0.7497672047566656,50.0183380191268,2.2790714567036585,120.82089579490766,50.018338019126816,-6.52428552343063,7.7823487535623785,-14.097815186899936,49.399860442132685,0.2633197405766652,0.0,,,37.71,0,5,0.1,0.0,,3.4889324,50.7865471,20200206,125254,2020-02-06T12:52:54Z,11.961,0.66,1.49,7.53,9,7,16,0.01,0.0,0.01,0,0,0,0,5,0,GPS_Atti,0,0,0,0,GPS_Atti,5,Hover,,,90.47619,Connected,3.4889304326940986,50.78654499659385,45,OK,15,10,0,0,,,,,,,,,,,3,0.0,0.0,0.02,-5.270478E-4,2.8454623E-4,2.4320143E-5,0.0016108662,0.0,0.0,0.0016108656,0.0,0.0016108623,1.00679135E-4,0.0,0.9089594,1.006791E-4,0.0,1.00678895E-4,,1000000.0,0,0,0,0,49,56,57,50,946,943,943,947,940,940,940,940,0.0,0.1,0.0,0.0,1527.0,1524.5,1525.2,1527.6,4.37,6.01,2.92,1.5,0,0,0,0,0.0,0.0,0.0,0.0,0,0,0,GPS_Atti,OTHER,NONE,ALREADY,False,Connected,,P,True,False,False,NONE,3.4889172850066097,50.78653900460537,-55.93062,,,,,0,True,1,0.0,0.0,0,0,3.4889172577110132,50.78653905134324,55.923874,3.4889253,50.7865356,58.121,-0.0026846314,0.0033700862,-4.1946903E-5,0,24,26,0.56691706,0.0,16,50,0,18,4,0,111,
201802366,-.472,3.4889325540387595,50.786546880501554,16,-162.86731,-162.6775,-0.011015557,-0.036104634,-0.9868877,0.9876094,-0.39032665,0.09207574,-0.27257317,0.48490098,436,-436,1386,1516.0,-0.0012401446,0.009695923,-9.514837E-4,0.0098211095,0.009774910714252459,0.014277681969432401,2.1485022525968165,-0.7346883918240804,50.00913362873267,2.270422372908677,121.13808028403749,50.009133628732684,-6.594734212840795,8.025765232499962,-14.467140359306887,49.36992235857714,0.2571407450441699,0.0,,,38.05,0,5,0.1,0.0,,3.4889326,50.786547,20200206,125255,2020-02-06T12:52:55Z,11.964,0.66,1.49,7.49,9,7,16,0.0,0.0,0.01,0,0,0,0,5,0,GPS_Atti,0,0,0,0,GPS_Atti,5,Hover,,,95.2381,Connected,3.4889304326940986,50.78654499659385,45,OK,15,10,0,0,,,,,,,,,,,3,0.0,0.0,0.01,-5.259491E-4,2.8597313E-4,2.3185597E-5,0.001608031,0.0,0.0,0.0016080312,0.0,0.0016080284,1.0050194E-4,0.0,0.90898955,1.0050195E-4,0.0,1.0050178E-4,,1000000.0,0,0,0,0,49,56,55,50,946,943,943,947,940,940,940,940,0.0,0.1,0.0,0.0,1528.2,1523.9,1524.5,1527.0,4.37,6.01,2.92,1.5,0,0,0,0,0.0,0.0,0.0,0.0,0,0,0,GPS_Atti,OTHER,NONE,ALREADY,False,Connected,,P,True,False,False,NONE,3.4889173397770166,50.78653897328254,-55.92536,,,,,0,True,1,0.0,0.0,0,0,3.488917272636001,50.78653900723398,55.928402,3.4889253,50.7865352,58.034,-0.004557208,0.0034664557,0.0052781845,0,24,27,0.56691706,0.0,16,50,0,18,4,0,116,
206302778,.528,3.488932618812584,50.78654696205005,16,-162.66527,-162.6789,-0.020049423,-0.018961094,-0.9878104,0.9881958,0.50561225,-1.7026212,3.2490346,3.7028081,436,-442,1406,1536.0,-0.00795302,0.009660301,9.149499E-5,0.012513205,0.012512871096597005,-0.0023669220860413915,2.1482004225424247,-0.7506048404374457,50.118146402903804,2.2753279943829123,120.86551146787053,50.11814640290379,-6.556308432765681,8.27382601346515,-14.851307674177594,49.801367135582126,0.008753511958466745,0.010644281984404732,,,38.37,600,5,0.1,0.0,,3.4889326,50.7865469,20200206,125256,2020-02-06T12:52:56Z,11.964,0.66,1.49,7.47,9,7,16,-0.01,0.0,0.0,0,0,0,0,5,0,ASST_TAKEOFF,0,0,0,0,ASST_TAKEOFF,5,Hover,,,95.2381,Connected,3.4889326844350292,50.78654689514716,45,OK,15,10,0,0,false,false,false,false,false,false,false,false,false,false,3,-0.1,-0.06,0.01,-5.435044E-4,2.764532E-4,2.2849083E-5,0.0016305584,0.0,0.0,0.0016305584,0.0,0.0016305555,1.019099E-4,0.0,0.9088191,1.019099E-4,0.0,1.0190972E-4,,1000000.0,307,319,769,302,46,52,49,47,1161,1157,1157,1161,1153,1153,1153,1153,0.1,0.1,0.1,0.1,1485.9,1481.6,1482.8,1484.0,11.24,10.88,8.32,11.28,0,0,0,0,0.3,0.0,0.0,0.0,0,0,0,ASST_TAKEOFF,OTHER,WP_AUTO_TAKEOFF,ALREADY,False,Connected,,P,True,False,False,NONE,3.4889172982979733,50.78653896592535,-55.922695,4.26,4.26,4.26,4.26,1,True,1,0.0,0.0,0,0,3.488917222155749,50.78653896429563,55.927315,3.4889254,50.786535,57.953,-0.005096118,1.874918E-4,-0.0029092124,0,24,27,0.56691706,0.0,16,50,0,18,4,0,121,
210802922,1.528,3.4889324003553845,50.78654674889294,16,-164.2031,-162.68327,-0.013107259,-0.035960656,-0.9856492,0.9863921,-1.5189992,1.9257108,1.1621782,2.7141073,451,-433,1402,1535.0,-0.012953818,0.012923455,0.0031827295,0.018572746,0.018298008122405254,0.00994342390133306,2.1409494043691586,-0.7294945239390298,50.09807827705668,2.2616004597825605,121.28954707129884,50.098078277056686,-6.721091173956104,8.51672776866115,-15.217821707635121,48.224549711677646,0.025754497980599547,0.05263587584187781,,,38.6,1500,5,0.1,0.0,,3.4889325,50.7865468,20200206,125257,2020-02-06T12:52:57Z,11.959,0.66,1.49,7.45,9,7,16,0.01,0.0,-0.01,0,0,0,0,5,0,AutoTakeoff,0,0,0,0,AutoTakeoff,5,Hover,,,95.2381,Connected,3.4889326844350292,50.78654689514716,45,OK,15,10,0,0,false,false,false,false,false,false,false,false,false,false,3,0.03,-0.02,0.01,-5.2229606E-4,2.6666737E-4,2.4966228E-5,0.0016479567,0.0,0.0,0.0016479574,0.0,0.001647955,1.0299729E-4,0.0,0.90823585,1.02997335E-4,0.0,1.0299719E-4,,1000000.0,2485,2376,2335,2508,44,49,49,45,1311,1293,1290,1300,1321,1296,1287,1313,0.0,0.0,0.0,0.0,1522.7,1520.8,1519.6,1523.9,0.16,0.17,0.1,0.42,0,0,0,0,0.3,0.0,0.0,0.0,0,0,0,ASST_TAKEOFF,OTHER,WP_AUTO_TAKEOFF,ALREADY,False,Connected,,P,True,False,False,NONE,3.4889172372215524,50.78653889516172,-55.929085,25.51,22.14,21.53,25.07,1,True,1,0.0,0.0,0,0,3.4889172659916956,50.78653900299307,55.930466,3.4889253,50.7865347,57.869,0.0013586151,-0.0014132864,-0.008889655,0,24,27,0.56691706,0.0,16,50,0,18,4,0,126,
215302945,2.528,3.4889325251094268,50.786546634112376,16,-166.05801,-162.64189,-0.017201785,-0.022434603,-1.1678352,1.1681774,-0.26175413,-3.2569416,-0.3828109,3.2897913,420,-497,1396,1540.0,-0.05248701,-5.7930243E-4,-0.38700908,0.3905525,0.05249020332512935,-0.03700453770350768,-0.33842054779848957,0.4494645184687364,49.82299982061795,0.5626165868405864,-93.19963178058629,49.82299982061795,-7.115587084801916,6.164588153893116,-14.368057842378352,48.595152068352235,0.031111771751431386,0.08949751948923905,,,38.92,2500,5,0.1,0.0,,3.4889325,50.7865468,20200206,125258,2020-02-06T12:52:58Z,11.955,0.66,1.49,7.41,9,7,16,-0.01,0.0,0.0,0,0,0,0,5,0,AutoTakeoff,0,0,0,0,AutoTakeoff,5,Hover,,,95.2381,Connected,3.4889326844350292,50.78654689514716,45,OK,15,10,0,0,false,false,false,false,false,false,false,false,false,false,3,-0.43,-0.1,-2.12,-5.9914874E-4,2.7692848E-4,-1.5217019E-4,0.0020014849,0.0,0.0,0.002001484,0.0,0.002001485,1.250928E-4,0.0,0.90989447,1.2509275E-4,0.0,1.2509282E-4,,1000000.0,5206,5212,5415,5344,43,48,47,44,1676,1688,1702,1702,1676,1672,1691,1688,0.0,0.0,0.0,0.0,1433.1,1431.3,1430.1,1432.5,4.96,5.98,5.82,6.18,0,0,0,0,0.3,0.0,0.0,0.0,0,16256,0,AutoTakeoff,OTHER,WP_AUTO_TAKEOFF,ALREADY,False,Connected,,P,True,False,False,NONE,3.4889173361571584,50.78653886418152,-55.973,69.86,69.09,71.03,71.0,2,True,0,0.15,0.0,0,0,3.48891723827939,50.78653893883241,55.933334,3.4889253,50.7865346,57.819,5.979332E-4,-0.0010819583,-0.0047168257,0,24,27,0.56691706,0.0,16,50,0,15,4,0,130,
219802975,3.528,3.488932029246367,50.78654624686921,16,-162.11584,-162.17189,-0.013214638,-0.006071153,-0.98831844,0.98842543,1.0962741,1.4812744,0.7759812,1.9995344,454,-478,1380,1529.0,-0.018085143,-0.05682989,-0.41367397,0.4179508,0.05963814695672895,-0.0042378404465757205,0.3837368814128444,-1.6609171423518927,49.88742270127491,1.7046216087206605,62.89338932110399,49.887422701274886,-7.150294461502728,7.131669534402373,-16.95421481583153,49.652023461676436,0.08554356333444865,0.15831167986306138,,,39.21,3400,5,0.6,0.4000000059604645,,3.4889321,50.7865463,20200206,125259,2020-02-06T12:52:59Z,12.488,0.66,1.5,7.33,9,7,16,-0.06,-0.11,-0.42,0,0,0,0,5,0,AutoTakeoff,0,0,0,0,AutoTakeoff,5,Hover,,,95.2381,Connected,3.4889326844350292,50.78654689514716,45,OK,15,10,0,0,false,false,false,false,false,false,false,false,false,false,4,-0.19,-0.74,-4.89,-9.590291E-4,-2.2804872E-4,-0.00492035,0.0016742443,0.0,0.0,0.0016742459,0.0,0.0016742429,1.0464027E-4,0.0,0.9092576,1.0464037E-4,0.0,1.0464018E-4,,1000000.0,5092,5111,5236,5238,44,50,51,44,1665,1677,1691,1690,1654,1664,1686,1679,0.0,0.0,0.0,0.0,1434.4,1430.7,1429.5,1434.4,5.22,5.78,5.74,5.89,0,0,0,0,0.30011913,0.014372715,0.004170801,0.013754249,-20164,17295,0,AutoTakeoff,OTHER,WP_AUTO_TAKEOFF,ALREADY,False,Connected,,P,True,False,False,NONE,3.4889164358153484,50.78653847499429,-56.510357,66.86,67.97,70.86,69.93,2,True,0,0.0,0.0,0,0,3.48891664229251,50.78653859495798,56.412212,3.4889251,50.7865343,58.054,-0.040192742,-0.038309015,-0.56187266,0,25,27,0.5482813,0.0,16,50,0,15,4,0,135,
224303071,4.528,3.488931603401303,50.78654590260999,16,-161.60541,-161.6617,-0.0070517343,-0.015577963,-1.0158828,1.0160267,-0.14821722,-2.6040907,-2.1885839,3.4048724,451,-475,1396,1542.0,0.016945522,-0.024365244,-0.45581675,0.45678192,0.029678541834944044,0.01891603861826158,0.7592697808828304,-1.0411525780525552,49.75054031192452,1.2885012765357613,85.85086840659403,49.75054031192451,-7.384791227375495,7.75138521145175,-16.65618394249781,49.21762136559258,0.13399900241016086,0.22786377149063922,,,39.43,4400,5,1.1,0.8999999761581421,,3.4889316,50.786546,20200206,125300,2020-02-06T12:53:00Z,13.013,0.66,1.5,7.26,9,7,16,0.01,-0.05,-0.5,0,0,0,0,5,0,NaviGo,0,0,0,0,NaviGo,5,Hover,,,95.2381,Connected,3.4889326844350292,50.78654689514716,45,OK,15,10,0,0,false,false,false,false,false,false,true,false,false,false,4,0.13,-0.39,-5.3,-8.453082E-4,-6.965811E-4,-0.009657321,0.0010291028,0.0,0.0,0.0010291021,0.0,0.0010290768,6.431893E-5,0.0,0.90946543,6.431888E-5,0.0,6.43173E-5,1.1600729,0.08,5166,5178,5377,5289,46,50,50,45,1681,1687,1709,1700,1664,1674,1703,1683,0.0,0.0,0.0,0.0,1425.8,1424.0,1424.6,1424.6,5.63,6.1,6.32,6.28,0,0,0,0,0.30223835,0.055823464,0.01734158,0.053061556,-1518,17294,0,NaviGo,OTHER,NONE,ALREADY,False,Connected,,P,True,False,False,NONE,3.488915790262419,50.78653862938111,-56.97888,67.79,68.97,73.12,70.48,2,True,0,0.0,0.0,0,0,3.488915736826873,50.78653862513201,56.922745,3.4889238,50.7865338,58.548,0.008832279,-0.044668827,-0.60570455,0,25,25,0.54828334,0.0,16,50,0,15,4,0,140,
228803133,5.528,3.4889311354317845,50.78654581639996,16,-161.02615,-160.92175,-0.010028068,-0.01444369,-1.343585,1.3437,2.4577317,-14.903541,-0.33412766,15.108528,448,-478,1402,1547.0,0.006328285,-0.047506623,-1.7172985,1.7179672,0.0479262581564528,-0.013660880320639897,0.9606831308839887,-0.9928695730372269,49.529807743932274,1.3814241385695694,93.58571362377828,49.52980774393228,-7.734268352072934,8.191292292639679,-16.94955847995679,49.797849863361975,0.1620060355971721,0.2842763935034346,,,39.73,5400,5,1.9,1.7000000476837158,,3.4889311,50.786546,20200206,125301,2020-02-06T12:53:01Z,13.652,0.66,1.5,7.19,9,7,16,-0.05,-0.14,-0.73,0,0,0,0,5,0,NaviGo,0,0,0,0,NaviGo,5,Hover,,,95.2381,Connected,3.4889326844350292,50.78654689514716,45,OK,15,10,0,1,false,false,false,false,false,false,true,false,false,false,5,-0.08,-0.7,-15.7,-7.142163E-4,-0.0012340617,-0.016647467,0.0013380644,0.0,0.0,0.0013380678,0.0,0.0013379593,8.362903E-5,0.0,0.9105214,8.362924E-5,0.0,8.362246E-5,1.8430113,0.125,6032,6003,6218,6126,45,51,50,44,1784,1781,1800,1794,1771,1776,1796,1781,0.0,0.0,0.0,0.0,1374.3,1371.8,1372.4,1373.7,7.62,8.12,8.36,8.42,0,0,0,0,0.30400628,0.08349057,0.018352574,0.0814485,25224,17294,0,NaviGo,OTHER,NONE,ALREADY,False,Connected,,P,True,False,False,NONE,3.488915041609323,50.78653876396521,-57.662327,81.21,81.85,84.93,82.97,2,True,0,0.15,0.0,0,0,3.488914907204069,50.78653886646926,57.552124,3.4889235,50.7865345,58.974,0.01980036,-0.07354161,-0.6959206,0,24,27,0.5669042,0.0,16,50,0,15,4,0,145,
233303206,6.528,3.4889308544222497,50.78654574106959,16,-157.16074,-157.6395,-0.015423853,-0.005315435,-1.3137132,1.3138145,1.7041131,-0.7914343,-0.4247859,1.926347,461,-490,1412,1564.0,-0.038991656,-0.0019390918,-5.0387,5.0388513,0.03903984366462333,-0.01758308184035867,0.7386176198387606,-0.6848248236719962,49.487058912532206,1.0071926949360501,96.65149514465597,49.487058912532234,-7.894799803658635,8.195148102494304,-17.12362496182933,48.844334431498005,0.18170894877508229,0.36074117990013227,,,40.07,6300,5,4.7,4.5,,3.4889304,50.7865459,20200206,125302,2020-02-06T12:53:02Z,15.843,0.66,1.5,7.14,9,7,16,-0.16,-0.24,-2.44,0,0,0,0,5,0,NaviGo,0,0,0,0,NaviGo,5,Hover,,,95.2381,Connected,3.4889326844350292,50.78654689514716,45,OK,15,10,0,3,false,false,false,false,false,false,true,false,false,false,11,-0.77,-0.1,-47.62,-0.0012088637,-0.0016510412,-0.04572325,0.0033088343,0.0,0.0,0.0033088333,0.0,0.0033088385,2.0680214E-4,0.0,0.9105452,2.0680208E-4,0.0,2.068024E-4,4.8756366,0.33333334,6529,6389,6751,6621,45,50,50,44,1828,1820,1847,1844,1815,1814,1840,1825,0.0,0.0,0.0,0.0,1341.7,1339.3,1338.7,1338.1,8.86,8.98,9.8,10.03,0,0,0,0,0.30693942,0.10706877,0.016755914,0.105749525,10442,17295,0,NaviGo,OTHER,NONE,ALREADY,False,Connected,,P,True,False,False,NONE,3.488914420140756,50.7865388753002,-60.822308,86.92,86.72,89.94,88.07,2,False,0,0.15,0.0,0,0,3.488913919325483,50.7865389439326,60.6666,3.4889224,50.786535,61.004,0.015247344,-0.06412376,-4.1838036,0,24,26,0.56690264,0.0,16,50,0,15,4,0,150,
237803285,7.528,3.488930286285826,50.786545399443035,16,-151.04839,-151.65901,-0.017280383,-0.017413031,-0.99919385,0.99949497,2.8306575,5.7501564,-0.46010864,6.4256225,442,-487,1422,1566.0,-0.0477219,0.015007677,-6.4924135,6.492606,0.0500260952750327,0.005092497335507783,0.5395964141107389,-0.4135631309311543,49.522929009887235,0.6798371338199425,102.05561130075745,49.52292900988721,-7.989505553538406,8.214595713739378,-17.24558328108583,49.20983789679831,0.23681653116670767,0.4535534334026829,,,40.35,7300,5,10.7,10.600000381469727,,3.4889301,50.7865456,20200206,125303,2020-02-06T12:53:03Z,21.252,0.66,1.5,7.08,9,7,16,-0.11,-0.17,-5.05,0,0,0,0,5,0,NaviGo,0,0,0,0,NaviGo,5,Hover,,,95.2381,Connected,3.4889326844350292,50.78654689514716,45,OK,15,10,0,7,false,false,false,false,false,false,true,false,false,false,38,-1.75,1.13,-68.04,-0.0029251447,-9.5395476E-4,-0.108476736,0.0069840346,0.0,0.0,0.0069840634,0.0,0.006984012,4.3650216E-4,0.0,0.91048205,4.3650396E-4,0.0,4.3650076E-4,9.220316,0.6666667,6121,6021,6383,6224,45,49,50,45,1797,1791,1819,1817,1780,1780,1810,1792,0.0,0.0,0.0,0.0,1357.1,1355.8,1359.0,1363.8,7.17,8.17,8.99,8.08,0,0,0,0,0.30918038,0.10706877,0.016755914,0.105749525,-3619,17297,0,NaviGo,OTHER,NONE,ALREADY,False,Connected,,P,True,False,False,NONE,3.4889138739299934,50.7865391363123,-66.50149,83.79,83.74,87.26,85.11,2,False,0,0.0,0.0,0,0,3.48891358319498,50.78653919861164,65.28747,3.4889214,50.7865351,65.09,0.05374718,-0.014486264,-6.3038607,0,24,26,0.56690264,0.0,16,50,0,24,4,0,154,
242303333,8.528,3.4889304577504343,50.78654588991698,16,-145.18001,-145.44273,-0.020049758,-0.010174774,-0.99157166,0.99182653,4.7878504,-5.1421437,0.41101602,7.038046,436,-469,1435,1571.0,8.02394E-4,0.03241379,-6.215019,6.215104,0.03242371859824094,0.02343004395654842,1.3524660042819112,-0.21252249885624463,49.60000587391419,1.3690495095546824,130.67133295909457,49.6000058739142,-8.060398066051759,9.283931995577563,-17.344527930791088,49.41201957370261,0.19234490880617341,0.5257048877969596,,,40.64,8200,5,16.5,16.5,,3.4889303,50.786546,20200206,125304,2020-02-06T12:53:04Z,27.335,0.66,1.5,7.03,9,7,16,0.08,0.0,-5.82,0,0,0,0,5,0,NaviGo,0,0,0,0,NaviGo,5,Hover,,,100.0,Connected,3.4889326844350292,50.78654689514716,45,OK,15,10,0,11,false,false,false,false,false,false,true,false,false,false,38,,,,,,,0.008453775,0.0,0.0,0.0084537715,0.0,0.00845378,5.2836095E-4,0.0,0.9101613,5.283607E-4,0.0,5.2836124E-4,,1000000.0,6006,5900,6216,6151,46,52,51,46,1781,1776,1797,1791,1768,1768,1792,1780,0.0,0.0,0.0,0.0,1372.4,1370.6,1370.6,1372.4,7.11,7.74,7.82,8.02,0,0,0,0,0.31188318,0.10706877,0.016755914,0.105749525,18437,17301,0,NaviGo,OTHER,NONE,ALREADY,False,Connected,,P,True,False,False,NONE,3.488913797646991,50.78653980362032,-72.505104,80.97,80.92,84.2,82.74,2,False,0,0.0,0.0,0,0,3.488913556568348,50.78653987666665,71.41122,3.4889205,50.7865353,71.321,0.087482475,-7.9296174E-4,-5.9335523,0,23,27,0.5838727,0.0,16,50,0,24,4,0,159,
246803455,9.528,3.488930787836001,50.786545863162,16,-139.40732,-139.93936,-0.011581103,-0.008551817,-1.0244107,1.0245119,2.4255207,8.080346,-0.33384472,8.443139,454,-469,1422,1564.0,-0.0543248,0.026454113,-6.065989,6.06629,0.06042353696167577,-0.03702965656746261,1.2198602226066486,-1.2853227246364862,49.60710013064038,1.7717549079217316,93.1097781634323,49.60710013064039,-8.180731591046873,9.443614031319338,-18.824286954035063,49.773811009253,0.17591013702434433,0.6003188706264664,,,40.93,9200,5,,22.299999237060547,,3.4889307,50.7865461,20200206,125305,2020-02-06T12:53:05Z,33.159,0.66,1.5,6.98,9,7,16,-0.03,-0.01,-5.84,0,0,0,0,5,0,NaviGo,0,0,0,0,NaviGo,5,Hover,,,95.2381,Connected,3.4889326844350292,50.78654689514716,45,OK,15,10,0,15,false,false,false,false,false,false,false,false,false,false,38,,,,,,,0.009484483,0.0,0.0,0.009484485,0.0,0.009484483,5.927802E-4,0.0,0.9099725,5.927803E-4,0.0,5.927802E-4,,1000000.0,6137,6016,6293,6194,46,50,51,46,1796,1785,1810,1801,1781,1778,1807,1793,0.0,0.0,0.0,0.0,1363.2,1358.3,1360.2,1363.8,7.64,7.8,8.24,8.29,0,0,0,0,0.31539857,0.10706877,0.016755914,0.105749525,30362,17304,0,NaviGo,OTHER,NONE,ALREADY,False,Connected,,P,True,False,False,NONE,3.4889137689628433,50.78653988740718,-78.12815,82.8,82.48,85.88,83.98,2,False,0,0.0,0.0,0,0,3.488913578568026,50.786540143085006,77.24118,3.4889201,50.7865353,77.093,-0.003636456,-0.014957639,-5.8341093,0,23,27,0.5838727,0.0,16,50,0,24,4,0,164,
